<?xml version="1.0" encoding="ISO-8859-1" ?>
<objects>
  <Location>
    <streetName>Nørre Torv</streetName>
    <streetBuildingIdentifier>9</streetBuildingIdentifier>
    <postCodeIdentifier>3060</postCodeIdentifier>
    <districtName>Espergærde</districtName>
    <districtSubDivisionIdentifier></districtSubDivisionIdentifier>
    <latitude>55.99533433</latitude>
    <longitude>12.54635209</longitude>
  </Location>
  <Location>
    <streetName>Jernbane Allé</streetName>
    <streetBuildingIdentifier>7</streetBuildingIdentifier>
    <postCodeIdentifier>7480</postCodeIdentifier>
    <districtName>Vildbjerg</districtName>
    <districtSubDivisionIdentifier></districtSubDivisionIdentifier>
    <latitude>56.19828865</latitude>
    <longitude>8.76872761</longitude>
  </Location>
  <Location>
    <streetName>Chr. X&apos;s Vej</streetName>
    <streetBuildingIdentifier>51</streetBuildingIdentifier>
    <postCodeIdentifier>9990</postCodeIdentifier>
    <districtName>Skagen</districtName>
    <districtSubDivisionIdentifier></districtSubDivisionIdentifier>
    <latitude>57.72235647</latitude>
    <longitude>10.58209552</longitude>
  </Location>
  <Location>
    <streetName>Nørre Allé</streetName>
    <streetBuildingIdentifier>16</streetBuildingIdentifier>
    <postCodeIdentifier>8362</postCodeIdentifier>
    <districtName>Hørning</districtName>
    <districtSubDivisionIdentifier></districtSubDivisionIdentifier>
    <latitude>56.08642723</latitude>
    <longitude>10.03764783</longitude>
  </Location>
  <Location>
    <streetName>Langmarksvej</streetName>
    <streetBuildingIdentifier>105</streetBuildingIdentifier>
    <postCodeIdentifier>8700</postCodeIdentifier>
    <districtName>Horsens</districtName>
    <districtSubDivisionIdentifier></districtSubDivisionIdentifier>
    <latitude>55.86744108</latitude>
    <longitude>9.88206805</longitude>
  </Location>
  <Location>
    <streetName>Ormhøjgårdvej</streetName>
    <streetBuildingIdentifier>1</streetBuildingIdentifier>
    <postCodeIdentifier>8700</postCodeIdentifier>
    <districtName>Horsens</districtName>
    <districtSubDivisionIdentifier></districtSubDivisionIdentifier>
    <latitude>55.84447143</latitude>
    <longitude>9.83607983</longitude>
  </Location>
  <Location>
    <streetName>Bymidten</streetName>
    <streetBuildingIdentifier>114</streetBuildingIdentifier>
    <postCodeIdentifier>3500</postCodeIdentifier>
    <districtName>Værløse</districtName>
    <districtSubDivisionIdentifier></districtSubDivisionIdentifier>
    <latitude>55.78297844</latitude>
    <longitude>12.3754721</longitude>
  </Location>
  <Location>
    <streetName>Gyngemose Parkvej</streetName>
    <streetBuildingIdentifier>74</streetBuildingIdentifier>
    <postCodeIdentifier>2860</postCodeIdentifier>
    <districtName>Søborg</districtName>
    <districtSubDivisionIdentifier></districtSubDivisionIdentifier>
    <latitude>55.7286342</latitude>
    <longitude>12.47700165</longitude>
  </Location>
  <Location>
    <streetName>Engboulevarden</streetName>
    <streetBuildingIdentifier>5</streetBuildingIdentifier>
    <postCodeIdentifier>8960</postCodeIdentifier>
    <districtName>Randers SØ</districtName>
    <districtSubDivisionIdentifier></districtSubDivisionIdentifier>
    <latitude>56.44834342</latitude>
    <longitude>10.05521319</longitude>
  </Location>
  <Location>
    <streetName>Humlebæk Center</streetName>
    <streetBuildingIdentifier>1</streetBuildingIdentifier>
    <postCodeIdentifier>3050</postCodeIdentifier>
    <districtName>Humlebæk</districtName>
    <districtSubDivisionIdentifier></districtSubDivisionIdentifier>
    <latitude>55.96396058</latitude>
    <longitude>12.53079881</longitude>
  </Location>
  <Location>
    <streetName>L. A. Rings Vej</streetName>
    <streetBuildingIdentifier>100</streetBuildingIdentifier>
    <postCodeIdentifier>5230</postCodeIdentifier>
    <districtName>Odense M</districtName>
    <districtSubDivisionIdentifier></districtSubDivisionIdentifier>
    <latitude>55.38969186</latitude>
    <longitude>10.42401694</longitude>
  </Location>
  <Location>
    <streetName>Gl. Landevej</streetName>
    <streetBuildingIdentifier>7</streetBuildingIdentifier>
    <postCodeIdentifier>9850</postCodeIdentifier>
    <districtName>Hirtshals</districtName>
    <districtSubDivisionIdentifier>Tornby</districtSubDivisionIdentifier>
    <latitude>57.52919676</latitude>
    <longitude>9.94878509</longitude>
  </Location>
  <Location>
    <streetName>Østergaardsallé</streetName>
    <streetBuildingIdentifier>5</streetBuildingIdentifier>
    <postCodeIdentifier>7490</postCodeIdentifier>
    <districtName>Aulum</districtName>
    <districtSubDivisionIdentifier></districtSubDivisionIdentifier>
    <latitude>56.2662792</latitude>
    <longitude>8.79639404</longitude>
  </Location>
  <Location>
    <streetName>Ølbycenter</streetName>
    <streetBuildingIdentifier>18</streetBuildingIdentifier>
    <postCodeIdentifier>4600</postCodeIdentifier>
    <districtName>Køge</districtName>
    <districtSubDivisionIdentifier></districtSubDivisionIdentifier>
    <latitude>55.47899751</latitude>
    <longitude>12.17464078</longitude>
  </Location>
  <Location>
    <streetName>Storegade</streetName>
    <streetBuildingIdentifier>7</streetBuildingIdentifier>
    <postCodeIdentifier>8382</postCodeIdentifier>
    <districtName>Hinnerup</districtName>
    <districtSubDivisionIdentifier></districtSubDivisionIdentifier>
    <latitude>56.26449642</latitude>
    <longitude>10.06204667</longitude>
  </Location>
  <Location>
    <streetName>Kirke Allé</streetName>
    <streetBuildingIdentifier>92</streetBuildingIdentifier>
    <postCodeIdentifier>7800</postCodeIdentifier>
    <districtName>Skive</districtName>
    <districtSubDivisionIdentifier></districtSubDivisionIdentifier>
    <latitude>56.55186668</latitude>
    <longitude>9.03009296</longitude>
  </Location>
  <Location>
    <streetName>Vallensbæk Stationstorv</streetName>
    <streetBuildingIdentifier>1</streetBuildingIdentifier>
    <postCodeIdentifier>2665</postCodeIdentifier>
    <districtName>Vallensbæk Strand</districtName>
    <districtSubDivisionIdentifier></districtSubDivisionIdentifier>
    <latitude>55.62439054</latitude>
    <longitude>12.38862197</longitude>
  </Location>
  <Location>
    <streetName>Præstbrovej</streetName>
    <streetBuildingIdentifier>4</streetBuildingIdentifier>
    <postCodeIdentifier>9330</postCodeIdentifier>
    <districtName>Dronninglund</districtName>
    <districtSubDivisionIdentifier>Agersted</districtSubDivisionIdentifier>
    <latitude>57.1974472</latitude>
    <longitude>10.38222994</longitude>
  </Location>
  <Location>
    <streetName>Jørgen Fibigersgade</streetName>
    <streetBuildingIdentifier>1</streetBuildingIdentifier>
    <postCodeIdentifier>9850</postCodeIdentifier>
    <districtName>Hirtshals</districtName>
    <districtSubDivisionIdentifier></districtSubDivisionIdentifier>
    <latitude>57.59078606</latitude>
    <longitude>9.95825045</longitude>
  </Location>
  <Location>
    <streetName>Ny Boder</streetName>
    <streetBuildingIdentifier>2</streetBuildingIdentifier>
    <postCodeIdentifier>7080</postCodeIdentifier>
    <districtName>Børkop</districtName>
    <districtSubDivisionIdentifier></districtSubDivisionIdentifier>
    <latitude>55.64140303</latitude>
    <longitude>9.64923227</longitude>
  </Location>
  <Location>
    <streetName>Skørping Center</streetName>
    <streetBuildingIdentifier>16</streetBuildingIdentifier>
    <postCodeIdentifier>9520</postCodeIdentifier>
    <districtName>Skørping</districtName>
    <districtSubDivisionIdentifier></districtSubDivisionIdentifier>
    <latitude>56.83627549</latitude>
    <longitude>9.88980436</longitude>
  </Location>
  <Location>
    <streetName>Farum Bytorv</streetName>
    <streetBuildingIdentifier>63</streetBuildingIdentifier>
    <postCodeIdentifier>3520</postCodeIdentifier>
    <districtName>Farum</districtName>
    <districtSubDivisionIdentifier></districtSubDivisionIdentifier>
    <latitude>55.81465384</latitude>
    <longitude>12.38134603</longitude>
  </Location>
  <Location>
    <streetName>Aakjærsvej</streetName>
    <streetBuildingIdentifier>1</streetBuildingIdentifier>
    <postCodeIdentifier>7870</postCodeIdentifier>
    <districtName>Roslev</districtName>
    <districtSubDivisionIdentifier>Breum</districtSubDivisionIdentifier>
    <latitude>56.68760908</latitude>
    <longitude>9.06892391</longitude>
  </Location>
  <Location>
    <streetName>Dokkedalvej</streetName>
    <streetBuildingIdentifier>2</streetBuildingIdentifier>
    <postCodeIdentifier>9280</postCodeIdentifier>
    <districtName>Storvorde</districtName>
    <districtSubDivisionIdentifier></districtSubDivisionIdentifier>
    <latitude>56.96772425</latitude>
    <longitude>10.22164018</longitude>
  </Location>
  <Location>
    <streetName>Skanderborgvej</streetName>
    <streetBuildingIdentifier>26</streetBuildingIdentifier>
    <postCodeIdentifier>8000</postCodeIdentifier>
    <districtName>Århus C</districtName>
    <districtSubDivisionIdentifier></districtSubDivisionIdentifier>
    <latitude>56.14265843</latitude>
    <longitude>10.1863133</longitude>
  </Location>
  <Location>
    <streetName>Ravsted Hovedgade</streetName>
    <streetBuildingIdentifier>77</streetBuildingIdentifier>
    <postCodeIdentifier>6372</postCodeIdentifier>
    <districtName>Bylderup-Bov</districtName>
    <districtSubDivisionIdentifier></districtSubDivisionIdentifier>
    <latitude>55.00859522</latitude>
    <longitude>9.124713</longitude>
  </Location>
  <Location>
    <streetName>Stationsvej</streetName>
    <streetBuildingIdentifier>22</streetBuildingIdentifier>
    <postCodeIdentifier>5464</postCodeIdentifier>
    <districtName>Brenderup Fyn</districtName>
    <districtSubDivisionIdentifier></districtSubDivisionIdentifier>
    <latitude>55.49039118</latitude>
    <longitude>9.96841159</longitude>
  </Location>
  <Location>
    <streetName>Åboulevarden</streetName>
    <streetBuildingIdentifier>69</streetBuildingIdentifier>
    <postCodeIdentifier>6880</postCodeIdentifier>
    <districtName>Tarm</districtName>
    <districtSubDivisionIdentifier></districtSubDivisionIdentifier>
    <latitude>55.91650434</latitude>
    <longitude>8.51740694</longitude>
  </Location>
  <Location>
    <streetName>Torvet</streetName>
    <streetBuildingIdentifier>34</streetBuildingIdentifier>
    <postCodeIdentifier>4293</postCodeIdentifier>
    <districtName>Dianalund</districtName>
    <districtSubDivisionIdentifier></districtSubDivisionIdentifier>
    <latitude>55.52657184</latitude>
    <longitude>11.49858663</longitude>
  </Location>
  <Location>
    <streetName>Søndre Ringvej</streetName>
    <streetBuildingIdentifier>12</streetBuildingIdentifier>
    <postCodeIdentifier>5610</postCodeIdentifier>
    <districtName>Assens</districtName>
    <districtSubDivisionIdentifier></districtSubDivisionIdentifier>
    <latitude>55.26699995</latitude>
    <longitude>9.89058991</longitude>
  </Location>
  <Location>
    <streetName>Hjortsvangen</streetName>
    <streetBuildingIdentifier>29</streetBuildingIdentifier>
    <postCodeIdentifier>7323</postCodeIdentifier>
    <districtName>Give</districtName>
    <districtSubDivisionIdentifier></districtSubDivisionIdentifier>
    <latitude>55.85407759</latitude>
    <longitude>9.24431918</longitude>
  </Location>
  <Location>
    <streetName>Parkvej</streetName>
    <streetBuildingIdentifier>1</streetBuildingIdentifier>
    <postCodeIdentifier>3250</postCodeIdentifier>
    <districtName>Gilleleje</districtName>
    <districtSubDivisionIdentifier></districtSubDivisionIdentifier>
    <latitude>56.11966354</latitude>
    <longitude>12.31592505</longitude>
  </Location>
</objects>
