<?xml version="1.0" encoding="ISO-8859-1" ?>
<objects>
  <Location>
    <streetName>Strandvejen</streetName>
    <streetBuildingIdentifier>193</streetBuildingIdentifier>
    <postCodeIdentifier>2900</postCodeIdentifier>
    <districtName>Hellerup</districtName>
    <districtSubDivisionIdentifier></districtSubDivisionIdentifier>
    <latitude>55.7359715</latitude>
    <longitude>12.57462865</longitude>
  </Location>
  <Location>
    <streetName>Gladsaxe Møllevej</streetName>
    <streetBuildingIdentifier>61</streetBuildingIdentifier>
    <postCodeIdentifier>2860</postCodeIdentifier>
    <districtName>Søborg</districtName>
    <districtSubDivisionIdentifier></districtSubDivisionIdentifier>
    <latitude>55.74074849</latitude>
    <longitude>12.47245376</longitude>
  </Location>
  <Location>
    <streetName>Brønsager</streetName>
    <streetBuildingIdentifier>5</streetBuildingIdentifier>
    <postCodeIdentifier>4000</postCodeIdentifier>
    <districtName>Roskilde</districtName>
    <districtSubDivisionIdentifier></districtSubDivisionIdentifier>
    <latitude>55.63358326</latitude>
    <longitude>12.01833093</longitude>
  </Location>
  <Location>
    <streetName>Dalumvej</streetName>
    <streetBuildingIdentifier>18</streetBuildingIdentifier>
    <postCodeIdentifier>5250</postCodeIdentifier>
    <districtName>Odense SV</districtName>
    <districtSubDivisionIdentifier></districtSubDivisionIdentifier>
    <latitude>55.37361174</latitude>
    <longitude>10.36998797</longitude>
  </Location>
  <Location>
    <streetName>Vesterbro</streetName>
    <streetBuildingIdentifier>99</streetBuildingIdentifier>
    <postCodeIdentifier>9000</postCodeIdentifier>
    <districtName>Aalborg</districtName>
    <districtSubDivisionIdentifier></districtSubDivisionIdentifier>
    <latitude>57.05046085</latitude>
    <longitude>9.9162843</longitude>
  </Location>
  <Location>
    <streetName>Kantatevej</streetName>
    <streetBuildingIdentifier>1</streetBuildingIdentifier>
    <postCodeIdentifier>2730</postCodeIdentifier>
    <districtName>Herlev</districtName>
    <districtSubDivisionIdentifier></districtSubDivisionIdentifier>
    <latitude>55.71645786</latitude>
    <longitude>12.43910865</longitude>
  </Location>
  <Location>
    <streetName>Vesterbrogade</streetName>
    <streetBuildingIdentifier>7</streetBuildingIdentifier>
    <postCodeIdentifier>8800</postCodeIdentifier>
    <districtName>Viborg</districtName>
    <districtSubDivisionIdentifier></districtSubDivisionIdentifier>
    <latitude>56.44967391</latitude>
    <longitude>9.40106082</longitude>
  </Location>
  <Location>
    <streetName>Sydhavnsvej</streetName>
    <streetBuildingIdentifier>1</streetBuildingIdentifier>
    <postCodeIdentifier>7700</postCodeIdentifier>
    <districtName>Thisted</districtName>
    <districtSubDivisionIdentifier></districtSubDivisionIdentifier>
    <latitude>56.95201155</latitude>
    <longitude>8.69302565</longitude>
  </Location>
  <Location>
    <streetName>Gadehavegårdsvej</streetName>
    <streetBuildingIdentifier>6</streetBuildingIdentifier>
    <postCodeIdentifier>2630</postCodeIdentifier>
    <districtName>Taastrup</districtName>
    <districtSubDivisionIdentifier></districtSubDivisionIdentifier>
    <latitude>55.6537556</latitude>
    <longitude>12.28086486</longitude>
  </Location>
  <Location>
    <streetName>Herredsgade</streetName>
    <streetBuildingIdentifier>5</streetBuildingIdentifier>
    <postCodeIdentifier>6990</postCodeIdentifier>
    <districtName>Ulfborg</districtName>
    <districtSubDivisionIdentifier></districtSubDivisionIdentifier>
    <latitude>56.2711889</latitude>
    <longitude>8.32111875</longitude>
  </Location>
  <Location>
    <streetName>Haraldsgade</streetName>
    <streetBuildingIdentifier>69</streetBuildingIdentifier>
    <postCodeIdentifier>2100</postCodeIdentifier>
    <districtName>København Ø</districtName>
    <districtSubDivisionIdentifier></districtSubDivisionIdentifier>
    <latitude>55.70827791</latitude>
    <longitude>12.5569675</longitude>
  </Location>
  <Location>
    <streetName>Ryhavevej</streetName>
    <streetBuildingIdentifier>28</streetBuildingIdentifier>
    <postCodeIdentifier>8210</postCodeIdentifier>
    <districtName>Århus V</districtName>
    <districtSubDivisionIdentifier></districtSubDivisionIdentifier>
    <latitude>56.16623762</latitude>
    <longitude>10.15678</longitude>
  </Location>
  <Location>
    <streetName>Frederikssundsvej</streetName>
    <streetBuildingIdentifier>50</streetBuildingIdentifier>
    <postCodeIdentifier>2400</postCodeIdentifier>
    <districtName>København NV</districtName>
    <districtSubDivisionIdentifier></districtSubDivisionIdentifier>
    <latitude>55.70288363</latitude>
    <longitude>12.53111131</longitude>
  </Location>
  <Location>
    <streetName>Byagervej</streetName>
    <streetBuildingIdentifier>8</streetBuildingIdentifier>
    <postCodeIdentifier>4250</postCodeIdentifier>
    <districtName>Fuglebjerg</districtName>
    <districtSubDivisionIdentifier></districtSubDivisionIdentifier>
    <latitude>55.30180236</latitude>
    <longitude>11.54574094</longitude>
  </Location>
  <Location>
    <streetName>Torvebyen</streetName>
    <streetBuildingIdentifier>4</streetBuildingIdentifier>
    <postCodeIdentifier>4600</postCodeIdentifier>
    <districtName>Køge</districtName>
    <districtSubDivisionIdentifier></districtSubDivisionIdentifier>
    <latitude>55.45538781</latitude>
    <longitude>12.17984605</longitude>
  </Location>
  <Location>
    <streetName>Højtoftevej</streetName>
    <streetBuildingIdentifier>1</streetBuildingIdentifier>
    <postCodeIdentifier>6700</postCodeIdentifier>
    <districtName>Esbjerg</districtName>
    <districtSubDivisionIdentifier></districtSubDivisionIdentifier>
    <latitude>55.48591058</latitude>
    <longitude>8.45134583</longitude>
  </Location>
  <Location>
    <streetName>Jernbanepladsen</streetName>
    <streetBuildingIdentifier>65</streetBuildingIdentifier>
    <postCodeIdentifier>2800</postCodeIdentifier>
    <districtName>Kgs. Lyngby</districtName>
    <districtSubDivisionIdentifier></districtSubDivisionIdentifier>
    <latitude>55.76943556</latitude>
    <longitude>12.50078158</longitude>
  </Location>
  <Location>
    <streetName>Storegade</streetName>
    <streetBuildingIdentifier>107</streetBuildingIdentifier>
    <postCodeIdentifier>6740</postCodeIdentifier>
    <districtName>Bramming</districtName>
    <districtSubDivisionIdentifier></districtSubDivisionIdentifier>
    <latitude>55.46668624</latitude>
    <longitude>8.68809219</longitude>
  </Location>
  <Location>
    <streetName>Nørrekær</streetName>
    <streetBuildingIdentifier>1</streetBuildingIdentifier>
    <postCodeIdentifier>2610</postCodeIdentifier>
    <districtName>Rødovre</districtName>
    <districtSubDivisionIdentifier></districtSubDivisionIdentifier>
    <latitude>55.67023643</latitude>
    <longitude>12.45531719</longitude>
  </Location>
  <Location>
    <streetName>Østerbrogade</streetName>
    <streetBuildingIdentifier>2</streetBuildingIdentifier>
    <postCodeIdentifier>8500</postCodeIdentifier>
    <districtName>Grenaa</districtName>
    <districtSubDivisionIdentifier></districtSubDivisionIdentifier>
    <latitude>56.41360047</latitude>
    <longitude>10.8828508</longitude>
  </Location>
  <Location>
    <streetName>Østerbrogade</streetName>
    <streetBuildingIdentifier>107B</streetBuildingIdentifier>
    <postCodeIdentifier>2100</postCodeIdentifier>
    <districtName>København Ø</districtName>
    <districtSubDivisionIdentifier></districtSubDivisionIdentifier>
    <latitude>55.70998261</latitude>
    <longitude>12.57718961</longitude>
  </Location>
  <Location>
    <streetName>Forbindelsesvejen</streetName>
    <streetBuildingIdentifier>147</streetBuildingIdentifier>
    <postCodeIdentifier>9400</postCodeIdentifier>
    <districtName>Nørresundby</districtName>
    <districtSubDivisionIdentifier></districtSubDivisionIdentifier>
    <latitude>57.06954103</latitude>
    <longitude>9.94551851</longitude>
  </Location>
  <Location>
    <streetName>Østbrovej</streetName>
    <streetBuildingIdentifier>4</streetBuildingIdentifier>
    <postCodeIdentifier>2600</postCodeIdentifier>
    <districtName>Glostrup</districtName>
    <districtSubDivisionIdentifier></districtSubDivisionIdentifier>
    <latitude>55.66341364</latitude>
    <longitude>12.40252648</longitude>
  </Location>
  <Location>
    <streetName>Snerlevej</streetName>
    <streetBuildingIdentifier>2</streetBuildingIdentifier>
    <postCodeIdentifier>4700</postCodeIdentifier>
    <districtName>Næstved</districtName>
    <districtSubDivisionIdentifier></districtSubDivisionIdentifier>
    <latitude>55.23897658</latitude>
    <longitude>11.77965758</longitude>
  </Location>
  <Location>
    <streetName>Roevej</streetName>
    <streetBuildingIdentifier>1</streetBuildingIdentifier>
    <postCodeIdentifier>4281</postCodeIdentifier>
    <districtName>Gørlev</districtName>
    <districtSubDivisionIdentifier></districtSubDivisionIdentifier>
    <latitude>55.53852138</latitude>
    <longitude>11.22923682</longitude>
  </Location>
  <Location>
    <streetName>Store Glasvej</streetName>
    <streetBuildingIdentifier>20</streetBuildingIdentifier>
    <postCodeIdentifier>5000</postCodeIdentifier>
    <districtName>Odense C</districtName>
    <districtSubDivisionIdentifier></districtSubDivisionIdentifier>
    <latitude>55.39574957</latitude>
    <longitude>10.3696956</longitude>
  </Location>
  <Location>
    <streetName>Ørstedsgade</streetName>
    <streetBuildingIdentifier>12</streetBuildingIdentifier>
    <postCodeIdentifier>5900</postCodeIdentifier>
    <districtName>Rudkøbing</districtName>
    <districtSubDivisionIdentifier></districtSubDivisionIdentifier>
    <latitude>54.93642822</latitude>
    <longitude>10.71476819</longitude>
  </Location>
  <Location>
    <streetName>Jerismosevej</streetName>
    <streetBuildingIdentifier>8</streetBuildingIdentifier>
    <postCodeIdentifier>2670</postCodeIdentifier>
    <districtName>Greve</districtName>
    <districtSubDivisionIdentifier></districtSubDivisionIdentifier>
    <latitude>55.58427479</latitude>
    <longitude>12.31325306</longitude>
  </Location>
  <Location>
    <streetName>Egedal</streetName>
    <streetBuildingIdentifier>3</streetBuildingIdentifier>
    <postCodeIdentifier>2690</postCodeIdentifier>
    <districtName>Karlslunde</districtName>
    <districtSubDivisionIdentifier></districtSubDivisionIdentifier>
    <latitude>55.56781701</latitude>
    <longitude>12.25338107</longitude>
  </Location>
  <Location>
    <streetName>Grantoftestræde</streetName>
    <streetBuildingIdentifier>0</streetBuildingIdentifier>
    <postCodeIdentifier>2750</postCodeIdentifier>
    <districtName>Ballerup</districtName>
    <districtSubDivisionIdentifier></districtSubDivisionIdentifier>
    <latitude>55.72738439</latitude>
    <longitude>12.34420712</longitude>
  </Location>
  <Location>
    <streetName>Hovedgaden</streetName>
    <streetBuildingIdentifier>50B</streetBuildingIdentifier>
    <postCodeIdentifier>4050</postCodeIdentifier>
    <districtName>Skibby</districtName>
    <districtSubDivisionIdentifier></districtSubDivisionIdentifier>
    <latitude>55.7503959</latitude>
    <longitude>11.95860528</longitude>
  </Location>
  <Location>
    <streetName>Vinkældertorvet</streetName>
    <streetBuildingIdentifier>9</streetBuildingIdentifier>
    <postCodeIdentifier>4640</postCodeIdentifier>
    <districtName>Faxe</districtName>
    <districtSubDivisionIdentifier></districtSubDivisionIdentifier>
    <latitude>55.25767005</latitude>
    <longitude>12.11966229</longitude>
  </Location>
  <Location>
    <streetName>Brovejen</streetName>
    <streetBuildingIdentifier>2</streetBuildingIdentifier>
    <postCodeIdentifier>5500</postCodeIdentifier>
    <districtName>Middelfart</districtName>
    <districtSubDivisionIdentifier></districtSubDivisionIdentifier>
    <latitude>55.49828655</latitude>
    <longitude>9.76151585</longitude>
  </Location>
  <Location>
    <streetName>Ribevej</streetName>
    <streetBuildingIdentifier>28</streetBuildingIdentifier>
    <postCodeIdentifier>6800</postCodeIdentifier>
    <districtName>Varde</districtName>
    <districtSubDivisionIdentifier></districtSubDivisionIdentifier>
    <latitude>55.61111414</latitude>
    <longitude>8.49219209</longitude>
  </Location>
  <Location>
    <streetName>Dalvej</streetName>
    <streetBuildingIdentifier>12</streetBuildingIdentifier>
    <postCodeIdentifier>8450</postCodeIdentifier>
    <districtName>Hammel</districtName>
    <districtSubDivisionIdentifier></districtSubDivisionIdentifier>
    <latitude>56.2570845</latitude>
    <longitude>9.86193766</longitude>
  </Location>
  <Location>
    <streetName>Hillerødgade</streetName>
    <streetBuildingIdentifier>23</streetBuildingIdentifier>
    <postCodeIdentifier>2200</postCodeIdentifier>
    <districtName>København N</districtName>
    <districtSubDivisionIdentifier></districtSubDivisionIdentifier>
    <latitude>55.69665003</latitude>
    <longitude>12.53712387</longitude>
  </Location>
  <Location>
    <streetName>Korsørvej</streetName>
    <streetBuildingIdentifier>31</streetBuildingIdentifier>
    <postCodeIdentifier>4200</postCodeIdentifier>
    <districtName>Slagelse</districtName>
    <districtSubDivisionIdentifier></districtSubDivisionIdentifier>
    <latitude>55.39437085</latitude>
    <longitude>11.33507245</longitude>
  </Location>
  <Location>
    <streetName>Stationsvej</streetName>
    <streetBuildingIdentifier>8</streetBuildingIdentifier>
    <postCodeIdentifier>6430</postCodeIdentifier>
    <districtName>Nordborg</districtName>
    <districtSubDivisionIdentifier></districtSubDivisionIdentifier>
    <latitude>55.0566206</latitude>
    <longitude>9.74241748</longitude>
  </Location>
  <Location>
    <streetName>Ørnstrupvej</streetName>
    <streetBuildingIdentifier>1</streetBuildingIdentifier>
    <postCodeIdentifier>8700</postCodeIdentifier>
    <districtName>Horsens</districtName>
    <districtSubDivisionIdentifier></districtSubDivisionIdentifier>
    <latitude>55.83613998</latitude>
    <longitude>9.81223791</longitude>
  </Location>
  <Location>
    <streetName>Thorvaldsensgade</streetName>
    <streetBuildingIdentifier>22</streetBuildingIdentifier>
    <postCodeIdentifier>8000</postCodeIdentifier>
    <districtName>Århus C</districtName>
    <districtSubDivisionIdentifier></districtSubDivisionIdentifier>
    <latitude>56.15649498</latitude>
    <longitude>10.1966575</longitude>
  </Location>
  <Location>
    <streetName>Kanaltorvet</streetName>
    <streetBuildingIdentifier>2</streetBuildingIdentifier>
    <postCodeIdentifier>2620</postCodeIdentifier>
    <districtName>Albertslund</districtName>
    <districtSubDivisionIdentifier></districtSubDivisionIdentifier>
    <latitude>55.65567631</latitude>
    <longitude>12.35441613</longitude>
  </Location>
  <Location>
    <streetName>Nærum Hovedgade</streetName>
    <streetBuildingIdentifier>65</streetBuildingIdentifier>
    <postCodeIdentifier>2850</postCodeIdentifier>
    <districtName>Nærum</districtName>
    <districtSubDivisionIdentifier></districtSubDivisionIdentifier>
    <latitude>55.82028602</latitude>
    <longitude>12.53831571</longitude>
  </Location>
  <Location>
    <streetName>Duevej</streetName>
    <streetBuildingIdentifier>1</streetBuildingIdentifier>
    <postCodeIdentifier>2970</postCodeIdentifier>
    <districtName>Hørsholm</districtName>
    <districtSubDivisionIdentifier></districtSubDivisionIdentifier>
    <latitude>55.89082971</latitude>
    <longitude>12.50389154</longitude>
  </Location>
  <Location>
    <streetName>Sønderstrupvej</streetName>
    <streetBuildingIdentifier>7</streetBuildingIdentifier>
    <postCodeIdentifier>4340</postCodeIdentifier>
    <districtName>Tølløse</districtName>
    <districtSubDivisionIdentifier></districtSubDivisionIdentifier>
    <latitude>55.61204854</latitude>
    <longitude>11.76310995</longitude>
  </Location>
  <Location>
    <streetName>Landemærket</streetName>
    <streetBuildingIdentifier>11</streetBuildingIdentifier>
    <postCodeIdentifier>1119</postCodeIdentifier>
    <districtName>København K</districtName>
    <districtSubDivisionIdentifier></districtSubDivisionIdentifier>
    <latitude>55.68193303</latitude>
    <longitude>12.57610591</longitude>
  </Location>
  <Location>
    <streetName>Sadelmagerporten</streetName>
    <streetBuildingIdentifier>4</streetBuildingIdentifier>
    <postCodeIdentifier>2650</postCodeIdentifier>
    <districtName>Hvidovre</districtName>
    <districtSubDivisionIdentifier></districtSubDivisionIdentifier>
    <latitude>55.62629965</latitude>
    <longitude>12.45421131</longitude>
  </Location>
  <Location>
    <streetName>Egebjerg Bygade</streetName>
    <streetBuildingIdentifier>1</streetBuildingIdentifier>
    <postCodeIdentifier>2750</postCodeIdentifier>
    <districtName>Ballerup</districtName>
    <districtSubDivisionIdentifier></districtSubDivisionIdentifier>
    <latitude>55.75108446</latitude>
    <longitude>12.37786371</longitude>
  </Location>
  <Location>
    <streetName>Frejasvej</streetName>
    <streetBuildingIdentifier>32</streetBuildingIdentifier>
    <postCodeIdentifier>3400</postCodeIdentifier>
    <districtName>Hillerød</districtName>
    <districtSubDivisionIdentifier></districtSubDivisionIdentifier>
    <latitude>55.93295725</latitude>
    <longitude>12.28538533</longitude>
  </Location>
  <Location>
    <streetName>Ulsnæs</streetName>
    <streetBuildingIdentifier>101</streetBuildingIdentifier>
    <postCodeIdentifier>6300</postCodeIdentifier>
    <districtName>Gråsten</districtName>
    <districtSubDivisionIdentifier></districtSubDivisionIdentifier>
    <latitude>54.91029633</latitude>
    <longitude>9.59969643</longitude>
  </Location>
  <Location>
    <streetName>Matthæusgade</streetName>
    <streetBuildingIdentifier>46</streetBuildingIdentifier>
    <postCodeIdentifier>1666</postCodeIdentifier>
    <districtName>København V</districtName>
    <districtSubDivisionIdentifier></districtSubDivisionIdentifier>
    <latitude>55.66988332</latitude>
    <longitude>12.54733827</longitude>
  </Location>
  <Location>
    <streetName>Engelsborgvej</streetName>
    <streetBuildingIdentifier>76</streetBuildingIdentifier>
    <postCodeIdentifier>2800</postCodeIdentifier>
    <districtName>Kgs. Lyngby</districtName>
    <districtSubDivisionIdentifier></districtSubDivisionIdentifier>
    <latitude>55.76583528</latitude>
    <longitude>12.48923078</longitude>
  </Location>
  <Location>
    <streetName>Nørremark Center</streetName>
    <streetBuildingIdentifier>14</streetBuildingIdentifier>
    <postCodeIdentifier>7100</postCodeIdentifier>
    <districtName>Vejle</districtName>
    <districtSubDivisionIdentifier></districtSubDivisionIdentifier>
    <latitude>55.72078078</latitude>
    <longitude>9.56002931</longitude>
  </Location>
  <Location>
    <streetName>Rantzausgade</streetName>
    <streetBuildingIdentifier>19</streetBuildingIdentifier>
    <postCodeIdentifier>2200</postCodeIdentifier>
    <districtName>København N</districtName>
    <districtSubDivisionIdentifier></districtSubDivisionIdentifier>
    <latitude>55.68597804</latitude>
    <longitude>12.5507705</longitude>
  </Location>
  <Location>
    <streetName>Kystvejen</streetName>
    <streetBuildingIdentifier>1</streetBuildingIdentifier>
    <postCodeIdentifier>2770</postCodeIdentifier>
    <districtName>Kastrup</districtName>
    <districtSubDivisionIdentifier></districtSubDivisionIdentifier>
    <latitude>55.63171871</latitude>
    <longitude>12.65788152</longitude>
  </Location>
  <Location>
    <streetName>Jægergårdsgade</streetName>
    <streetBuildingIdentifier>64</streetBuildingIdentifier>
    <postCodeIdentifier>8000</postCodeIdentifier>
    <districtName>Århus C</districtName>
    <districtSubDivisionIdentifier></districtSubDivisionIdentifier>
    <latitude>56.14799851</latitude>
    <longitude>10.20091664</longitude>
  </Location>
  <Location>
    <streetName>Stengårds Allé</streetName>
    <streetBuildingIdentifier>195B</streetBuildingIdentifier>
    <postCodeIdentifier>2860</postCodeIdentifier>
    <districtName>Søborg</districtName>
    <districtSubDivisionIdentifier></districtSubDivisionIdentifier>
    <latitude>55.7478425</latitude>
    <longitude>12.48134206</longitude>
  </Location>
  <Location>
    <streetName>Dytmærsken</streetName>
    <streetBuildingIdentifier>9</streetBuildingIdentifier>
    <postCodeIdentifier>8900</postCodeIdentifier>
    <districtName>Randers</districtName>
    <districtSubDivisionIdentifier></districtSubDivisionIdentifier>
    <latitude>56.45970427</latitude>
    <longitude>10.03983561</longitude>
  </Location>
  <Location>
    <streetName>Vestre alle</streetName>
    <streetBuildingIdentifier>3</streetBuildingIdentifier>
    <postCodeIdentifier>9000</postCodeIdentifier>
    <districtName>Aalborg</districtName>
    <districtSubDivisionIdentifier></districtSubDivisionIdentifier>
    <latitude>57.03302326</latitude>
    <longitude>9.9076496</longitude>
  </Location>
  <Location>
    <streetName>Østergade</streetName>
    <streetBuildingIdentifier>78</streetBuildingIdentifier>
    <postCodeIdentifier>5610</postCodeIdentifier>
    <districtName>Assens</districtName>
    <districtSubDivisionIdentifier></districtSubDivisionIdentifier>
    <latitude>55.27005874</latitude>
    <longitude>9.90112495</longitude>
  </Location>
  <Location>
    <streetName>Lystrupvej</streetName>
    <streetBuildingIdentifier>221</streetBuildingIdentifier>
    <postCodeIdentifier>8520</postCodeIdentifier>
    <districtName>Lystrup</districtName>
    <districtSubDivisionIdentifier></districtSubDivisionIdentifier>
    <latitude>56.22685366</latitude>
    <longitude>10.23115784</longitude>
  </Location>
  <Location>
    <streetName>Ryvangs Allé</streetName>
    <streetBuildingIdentifier>87</streetBuildingIdentifier>
    <postCodeIdentifier>2900</postCodeIdentifier>
    <districtName>Hellerup</districtName>
    <districtSubDivisionIdentifier></districtSubDivisionIdentifier>
    <latitude>55.73187512</latitude>
    <longitude>12.5677045</longitude>
  </Location>
  <Location>
    <streetName>Nørre Voldgade</streetName>
    <streetBuildingIdentifier>94</streetBuildingIdentifier>
    <postCodeIdentifier>1358</postCodeIdentifier>
    <districtName>København K</districtName>
    <districtSubDivisionIdentifier></districtSubDivisionIdentifier>
    <latitude>55.6837536</latitude>
    <longitude>12.57318463</longitude>
  </Location>
  <Location>
    <streetName>Musvågevej</streetName>
    <streetBuildingIdentifier>2</streetBuildingIdentifier>
    <postCodeIdentifier>8210</postCodeIdentifier>
    <districtName>Århus V</districtName>
    <districtSubDivisionIdentifier></districtSubDivisionIdentifier>
    <latitude>56.17166491</latitude>
    <longitude>10.17486987</longitude>
  </Location>
  <Location>
    <streetName>Frederikssundsvej</streetName>
    <streetBuildingIdentifier>137</streetBuildingIdentifier>
    <postCodeIdentifier>2700</postCodeIdentifier>
    <districtName>Brønshøj</districtName>
    <districtSubDivisionIdentifier></districtSubDivisionIdentifier>
    <latitude>55.7051803</latitude>
    <longitude>12.50558556</longitude>
  </Location>
  <Location>
    <streetName>Eremitageparken</streetName>
    <streetBuildingIdentifier>353</streetBuildingIdentifier>
    <postCodeIdentifier>2800</postCodeIdentifier>
    <districtName>Kgs. Lyngby</districtName>
    <districtSubDivisionIdentifier></districtSubDivisionIdentifier>
    <latitude>55.79670045</latitude>
    <longitude>12.53459409</longitude>
  </Location>
  <Location>
    <streetName>Vesterled</streetName>
    <streetBuildingIdentifier>45</streetBuildingIdentifier>
    <postCodeIdentifier>5471</postCodeIdentifier>
    <districtName>Søndersø</districtName>
    <districtSubDivisionIdentifier></districtSubDivisionIdentifier>
    <latitude>55.48436144</latitude>
    <longitude>10.24483611</longitude>
  </Location>
  <Location>
    <streetName>Skelagervej</streetName>
    <streetBuildingIdentifier>301</streetBuildingIdentifier>
    <postCodeIdentifier>9000</postCodeIdentifier>
    <districtName>Aalborg</districtName>
    <districtSubDivisionIdentifier></districtSubDivisionIdentifier>
    <latitude>57.02310605</latitude>
    <longitude>9.87466059</longitude>
  </Location>
  <Location>
    <streetName>Utterslevvej</streetName>
    <streetBuildingIdentifier>11</streetBuildingIdentifier>
    <postCodeIdentifier>2400</postCodeIdentifier>
    <districtName>København NV</districtName>
    <districtSubDivisionIdentifier></districtSubDivisionIdentifier>
    <latitude>55.70792445</latitude>
    <longitude>12.51463807</longitude>
  </Location>
  <Location>
    <streetName>Lynge Bytorv</streetName>
    <streetBuildingIdentifier>2</streetBuildingIdentifier>
    <postCodeIdentifier>3540</postCodeIdentifier>
    <districtName>Lynge</districtName>
    <districtSubDivisionIdentifier></districtSubDivisionIdentifier>
    <latitude>55.8376024</latitude>
    <longitude>12.27766763</longitude>
  </Location>
  <Location>
    <streetName>Banetoften</streetName>
    <streetBuildingIdentifier>2</streetBuildingIdentifier>
    <postCodeIdentifier>7500</postCodeIdentifier>
    <districtName>Holstebro</districtName>
    <districtSubDivisionIdentifier></districtSubDivisionIdentifier>
    <latitude>56.36374063</latitude>
    <longitude>8.59428996</longitude>
  </Location>
  <Location>
    <streetName>Vigerslevvej</streetName>
    <streetBuildingIdentifier>216</streetBuildingIdentifier>
    <postCodeIdentifier>2500</postCodeIdentifier>
    <districtName>Valby</districtName>
    <districtSubDivisionIdentifier></districtSubDivisionIdentifier>
    <latitude>55.6563328</latitude>
    <longitude>12.48527836</longitude>
  </Location>
  <Location>
    <streetName>Torvestrædet</streetName>
    <streetBuildingIdentifier>23</streetBuildingIdentifier>
    <postCodeIdentifier>3450</postCodeIdentifier>
    <districtName>Allerød</districtName>
    <districtSubDivisionIdentifier></districtSubDivisionIdentifier>
    <latitude>55.86991275</latitude>
    <longitude>12.3554013</longitude>
  </Location>
  <Location>
    <streetName>Østergade</streetName>
    <streetBuildingIdentifier>9</streetBuildingIdentifier>
    <postCodeIdentifier>8600</postCodeIdentifier>
    <districtName>Silkeborg</districtName>
    <districtSubDivisionIdentifier></districtSubDivisionIdentifier>
    <latitude>56.17050144</latitude>
    <longitude>9.55132178</longitude>
  </Location>
  <Location>
    <streetName>Lygten</streetName>
    <streetBuildingIdentifier>11</streetBuildingIdentifier>
    <postCodeIdentifier>2400</postCodeIdentifier>
    <districtName>København NV</districtName>
    <districtSubDivisionIdentifier></districtSubDivisionIdentifier>
    <latitude>55.70286568</latitude>
    <longitude>12.53735155</longitude>
  </Location>
  <Location>
    <streetName>Hvidovrevej</streetName>
    <streetBuildingIdentifier>436</streetBuildingIdentifier>
    <postCodeIdentifier>2650</postCodeIdentifier>
    <districtName>Hvidovre</districtName>
    <districtSubDivisionIdentifier></districtSubDivisionIdentifier>
    <latitude>55.62802353</latitude>
    <longitude>12.48130051</longitude>
  </Location>
  <Location>
    <streetName>Blækhatten</streetName>
    <streetBuildingIdentifier>11</streetBuildingIdentifier>
    <postCodeIdentifier>5220</postCodeIdentifier>
    <districtName>Odense SØ</districtName>
    <districtSubDivisionIdentifier></districtSubDivisionIdentifier>
    <latitude>55.36878549</latitude>
    <longitude>10.46309344</longitude>
  </Location>
  <Location>
    <streetName>Beder Landevej</streetName>
    <streetBuildingIdentifier>67</streetBuildingIdentifier>
    <postCodeIdentifier>8330</postCodeIdentifier>
    <districtName>Beder</districtName>
    <districtSubDivisionIdentifier></districtSubDivisionIdentifier>
    <latitude>56.05642106</latitude>
    <longitude>10.20243683</longitude>
  </Location>
  <Location>
    <streetName>Frederikssundsvej</streetName>
    <streetBuildingIdentifier>348</streetBuildingIdentifier>
    <postCodeIdentifier>2700</postCodeIdentifier>
    <districtName>Brønshøj</districtName>
    <districtSubDivisionIdentifier></districtSubDivisionIdentifier>
    <latitude>55.71290653</latitude>
    <longitude>12.46912074</longitude>
  </Location>
  <Location>
    <streetName>Søndervangen</streetName>
    <streetBuildingIdentifier>4</streetBuildingIdentifier>
    <postCodeIdentifier>3460</postCodeIdentifier>
    <districtName>Birkerød</districtName>
    <districtSubDivisionIdentifier></districtSubDivisionIdentifier>
    <latitude>55.84177989</latitude>
    <longitude>12.43355774</longitude>
  </Location>
  <Location>
    <streetName>Sct. Laurentii Vej</streetName>
    <streetBuildingIdentifier>105</streetBuildingIdentifier>
    <postCodeIdentifier>9990</postCodeIdentifier>
    <districtName>Skagen</districtName>
    <districtSubDivisionIdentifier></districtSubDivisionIdentifier>
    <latitude>57.71906788</latitude>
    <longitude>10.58141475</longitude>
  </Location>
  <Location>
    <streetName>Kampmannsgade</streetName>
    <streetBuildingIdentifier>1</streetBuildingIdentifier>
    <postCodeIdentifier>1604</postCodeIdentifier>
    <districtName>København V</districtName>
    <districtSubDivisionIdentifier></districtSubDivisionIdentifier>
    <latitude>55.67743406</latitude>
    <longitude>12.56169154</longitude>
  </Location>
  <Location>
    <streetName>Rolighedsvej</streetName>
    <streetBuildingIdentifier>11</streetBuildingIdentifier>
    <postCodeIdentifier>1958</postCodeIdentifier>
    <districtName>Frederiksberg C</districtName>
    <districtSubDivisionIdentifier></districtSubDivisionIdentifier>
    <latitude>55.6850511</latitude>
    <longitude>12.54022964</longitude>
  </Location>
  <Location>
    <streetName>Bagsværd Hovedgade</streetName>
    <streetBuildingIdentifier>141</streetBuildingIdentifier>
    <postCodeIdentifier>2880</postCodeIdentifier>
    <districtName>Bagsværd</districtName>
    <districtSubDivisionIdentifier></districtSubDivisionIdentifier>
    <latitude>55.76119218</latitude>
    <longitude>12.4502251</longitude>
  </Location>
  <Location>
    <streetName>Blågårdsgade</streetName>
    <streetBuildingIdentifier>26</streetBuildingIdentifier>
    <postCodeIdentifier>2200</postCodeIdentifier>
    <districtName>København N</districtName>
    <districtSubDivisionIdentifier></districtSubDivisionIdentifier>
    <latitude>55.68541593</latitude>
    <longitude>12.55683129</longitude>
  </Location>
  <Location>
    <streetName>Godthåbsvej</streetName>
    <streetBuildingIdentifier>195</streetBuildingIdentifier>
    <postCodeIdentifier>2720</postCodeIdentifier>
    <districtName>Vanløse</districtName>
    <districtSubDivisionIdentifier></districtSubDivisionIdentifier>
    <latitude>55.69223906</latitude>
    <longitude>12.51383401</longitude>
  </Location>
  <Location>
    <streetName>Vesterbrogade</streetName>
    <streetBuildingIdentifier>30</streetBuildingIdentifier>
    <postCodeIdentifier>3250</postCodeIdentifier>
    <districtName>Gilleleje</districtName>
    <districtSubDivisionIdentifier></districtSubDivisionIdentifier>
    <latitude>56.12597803</latitude>
    <longitude>12.3013865</longitude>
  </Location>
  <Location>
    <streetName>Grundtvigs Alle</streetName>
    <streetBuildingIdentifier>186B</streetBuildingIdentifier>
    <postCodeIdentifier>6400</postCodeIdentifier>
    <districtName>Sønderborg</districtName>
    <districtSubDivisionIdentifier></districtSubDivisionIdentifier>
    <latitude>54.92139995</latitude>
    <longitude>9.80966977</longitude>
  </Location>
  <Location>
    <streetName>Hobrovej</streetName>
    <streetBuildingIdentifier>55</streetBuildingIdentifier>
    <postCodeIdentifier>9530</postCodeIdentifier>
    <districtName>Støvring</districtName>
    <districtSubDivisionIdentifier></districtSubDivisionIdentifier>
    <latitude>56.89327227</latitude>
    <longitude>9.83756292</longitude>
  </Location>
  <Location>
    <streetName>Gammel Køge Landevej</streetName>
    <streetBuildingIdentifier>263</streetBuildingIdentifier>
    <postCodeIdentifier>2650</postCodeIdentifier>
    <districtName>Hvidovre</districtName>
    <districtSubDivisionIdentifier></districtSubDivisionIdentifier>
    <latitude>55.63462823</latitude>
    <longitude>12.49314051</longitude>
  </Location>
  <Location>
    <streetName>Frederikssundsvej</streetName>
    <streetBuildingIdentifier>192</streetBuildingIdentifier>
    <postCodeIdentifier>2700</postCodeIdentifier>
    <districtName>Brønshøj</districtName>
    <districtSubDivisionIdentifier></districtSubDivisionIdentifier>
    <latitude>55.7056721</latitude>
    <longitude>12.49212606</longitude>
  </Location>
  <Location>
    <streetName>Centervejen</streetName>
    <streetBuildingIdentifier>25</streetBuildingIdentifier>
    <postCodeIdentifier>4550</postCodeIdentifier>
    <districtName>Asnæs</districtName>
    <districtSubDivisionIdentifier></districtSubDivisionIdentifier>
    <latitude>55.81232108</latitude>
    <longitude>11.5023786</longitude>
  </Location>
  <Location>
    <streetName>Svend Gønges Torv</streetName>
    <streetBuildingIdentifier>2</streetBuildingIdentifier>
    <postCodeIdentifier>4720</postCodeIdentifier>
    <districtName>Præstø</districtName>
    <districtSubDivisionIdentifier></districtSubDivisionIdentifier>
    <latitude>55.12172687</latitude>
    <longitude>12.03943968</longitude>
  </Location>
  <Location>
    <streetName>Ved Stranden</streetName>
    <streetBuildingIdentifier>32</streetBuildingIdentifier>
    <postCodeIdentifier>4780</postCodeIdentifier>
    <districtName>Stege</districtName>
    <districtSubDivisionIdentifier></districtSubDivisionIdentifier>
    <latitude>54.9823398</latitude>
    <longitude>12.2842712</longitude>
  </Location>
  <Location>
    <streetName>Børupvej</streetName>
    <streetBuildingIdentifier>3</streetBuildingIdentifier>
    <postCodeIdentifier>8310</postCodeIdentifier>
    <districtName>Tranbjerg J</districtName>
    <districtSubDivisionIdentifier></districtSubDivisionIdentifier>
    <latitude>56.09491871</latitude>
    <longitude>10.12877698</longitude>
  </Location>
  <Location>
    <streetName>Hjørringvej</streetName>
    <streetBuildingIdentifier>144</streetBuildingIdentifier>
    <postCodeIdentifier>9900</postCodeIdentifier>
    <districtName>Frederikshavn</districtName>
    <districtSubDivisionIdentifier></districtSubDivisionIdentifier>
    <latitude>57.44713325</latitude>
    <longitude>10.50615136</longitude>
  </Location>
  <Location>
    <streetName>Jernbane Allé</streetName>
    <streetBuildingIdentifier>54</streetBuildingIdentifier>
    <postCodeIdentifier>2720</postCodeIdentifier>
    <districtName>Vanløse</districtName>
    <districtSubDivisionIdentifier></districtSubDivisionIdentifier>
    <latitude>55.6885524</latitude>
    <longitude>12.48959555</longitude>
  </Location>
  <Location>
    <streetName>Hjallerup Centret</streetName>
    <streetBuildingIdentifier>2</streetBuildingIdentifier>
    <postCodeIdentifier>9320</postCodeIdentifier>
    <districtName>Hjallerup</districtName>
    <districtSubDivisionIdentifier></districtSubDivisionIdentifier>
    <latitude>57.16781476</latitude>
    <longitude>10.14509861</longitude>
  </Location>
  <Location>
    <streetName>Lygten</streetName>
    <streetBuildingIdentifier>53</streetBuildingIdentifier>
    <postCodeIdentifier>2400</postCodeIdentifier>
    <districtName>København NV</districtName>
    <districtSubDivisionIdentifier></districtSubDivisionIdentifier>
    <latitude>55.70722295</latitude>
    <longitude>12.53841451</longitude>
  </Location>
  <Location>
    <streetName>Tårnvej</streetName>
    <streetBuildingIdentifier>310</streetBuildingIdentifier>
    <postCodeIdentifier>2610</postCodeIdentifier>
    <districtName>Rødovre</districtName>
    <districtSubDivisionIdentifier></districtSubDivisionIdentifier>
    <latitude>55.68637628</latitude>
    <longitude>12.45147371</longitude>
  </Location>
  <Location>
    <streetName>Ny Østergade</streetName>
    <streetBuildingIdentifier>9</streetBuildingIdentifier>
    <postCodeIdentifier>4880</postCodeIdentifier>
    <districtName>Nysted</districtName>
    <districtSubDivisionIdentifier></districtSubDivisionIdentifier>
    <latitude>54.66941296</latitude>
    <longitude>11.73010948</longitude>
  </Location>
  <Location>
    <streetName>Bjerggårds Allé</streetName>
    <streetBuildingIdentifier>4</streetBuildingIdentifier>
    <postCodeIdentifier>5240</postCodeIdentifier>
    <districtName>Odense NØ</districtName>
    <districtSubDivisionIdentifier></districtSubDivisionIdentifier>
    <latitude>55.42507436</latitude>
    <longitude>10.45446048</longitude>
  </Location>
  <Location>
    <streetName>Vallensbæk Stationstorv</streetName>
    <streetBuildingIdentifier>82</streetBuildingIdentifier>
    <postCodeIdentifier>2665</postCodeIdentifier>
    <districtName>Vallensbæk Strand</districtName>
    <districtSubDivisionIdentifier></districtSubDivisionIdentifier>
    <latitude>55.62279634</latitude>
    <longitude>12.38807116</longitude>
  </Location>
  <Location>
    <streetName>Roskildevej</streetName>
    <streetBuildingIdentifier>274</streetBuildingIdentifier>
    <postCodeIdentifier>2610</postCodeIdentifier>
    <districtName>Rødovre</districtName>
    <districtSubDivisionIdentifier></districtSubDivisionIdentifier>
    <latitude>55.6723557</latitude>
    <longitude>12.4675164</longitude>
  </Location>
  <Location>
    <streetName>Tømmergade</streetName>
    <streetBuildingIdentifier>5</streetBuildingIdentifier>
    <postCodeIdentifier>4900</postCodeIdentifier>
    <districtName>Nakskov</districtName>
    <districtSubDivisionIdentifier></districtSubDivisionIdentifier>
    <latitude>54.82930175</latitude>
    <longitude>11.14182998</longitude>
  </Location>
  <Location>
    <streetName>Tarphagevej</streetName>
    <streetBuildingIdentifier>23</streetBuildingIdentifier>
    <postCodeIdentifier>6710</postCodeIdentifier>
    <districtName>Esbjerg V</districtName>
    <districtSubDivisionIdentifier></districtSubDivisionIdentifier>
    <latitude>55.4947044</latitude>
    <longitude>8.41003836</longitude>
  </Location>
  <Location>
    <streetName>Greve Midtby Center</streetName>
    <streetBuildingIdentifier>14</streetBuildingIdentifier>
    <postCodeIdentifier>2670</postCodeIdentifier>
    <districtName>Greve</districtName>
    <districtSubDivisionIdentifier></districtSubDivisionIdentifier>
    <latitude>55.58296351</latitude>
    <longitude>12.29587262</longitude>
  </Location>
  <Location>
    <streetName>Roskildevej</streetName>
    <streetBuildingIdentifier>158</streetBuildingIdentifier>
    <postCodeIdentifier>2500</postCodeIdentifier>
    <districtName>Valby</districtName>
    <districtSubDivisionIdentifier></districtSubDivisionIdentifier>
    <latitude>55.67277486</latitude>
    <longitude>12.48666203</longitude>
  </Location>
  <Location>
    <streetName>Godthaabsvej</streetName>
    <streetBuildingIdentifier>15</streetBuildingIdentifier>
    <postCodeIdentifier>6950</postCodeIdentifier>
    <districtName>Ringkøbing</districtName>
    <districtSubDivisionIdentifier></districtSubDivisionIdentifier>
    <latitude>56.09205772</latitude>
    <longitude>8.24249583</longitude>
  </Location>
  <Location>
    <streetName>Silkeborgvej</streetName>
    <streetBuildingIdentifier>246</streetBuildingIdentifier>
    <postCodeIdentifier>8230</postCodeIdentifier>
    <districtName>Åbyhøj</districtName>
    <districtSubDivisionIdentifier></districtSubDivisionIdentifier>
    <latitude>56.15545527</latitude>
    <longitude>10.16632518</longitude>
  </Location>
  <Location>
    <streetName>Christmas Møllers Plads</streetName>
    <streetBuildingIdentifier>3</streetBuildingIdentifier>
    <postCodeIdentifier>2300</postCodeIdentifier>
    <districtName>København S</districtName>
    <districtSubDivisionIdentifier></districtSubDivisionIdentifier>
    <latitude>55.66864299</latitude>
    <longitude>12.59700649</longitude>
  </Location>
  <Location>
    <streetName>Parallelvej</streetName>
    <streetBuildingIdentifier>2</streetBuildingIdentifier>
    <postCodeIdentifier>8620</postCodeIdentifier>
    <districtName>Kjellerup</districtName>
    <districtSubDivisionIdentifier></districtSubDivisionIdentifier>
    <latitude>56.2865483</latitude>
    <longitude>9.41560214</longitude>
  </Location>
  <Location>
    <streetName>Rundhøjtorvet</streetName>
    <streetBuildingIdentifier>2</streetBuildingIdentifier>
    <postCodeIdentifier>8270</postCodeIdentifier>
    <districtName>Højbjerg</districtName>
    <districtSubDivisionIdentifier></districtSubDivisionIdentifier>
    <latitude>56.11968043</latitude>
    <longitude>10.18090924</longitude>
  </Location>
  <Location>
    <streetName>Grønnegade</streetName>
    <streetBuildingIdentifier>22</streetBuildingIdentifier>
    <postCodeIdentifier>8850</postCodeIdentifier>
    <districtName>Bjerringbro</districtName>
    <districtSubDivisionIdentifier></districtSubDivisionIdentifier>
    <latitude>56.37599885</latitude>
    <longitude>9.65488535</longitude>
  </Location>
  <Location>
    <streetName>Udbyhøjvej</streetName>
    <streetBuildingIdentifier>87</streetBuildingIdentifier>
    <postCodeIdentifier>8930</postCodeIdentifier>
    <districtName>Randers NØ</districtName>
    <districtSubDivisionIdentifier></districtSubDivisionIdentifier>
    <latitude>56.4724664</latitude>
    <longitude>10.06692115</longitude>
  </Location>
  <Location>
    <streetName>Selsmosevej</streetName>
    <streetBuildingIdentifier>2</streetBuildingIdentifier>
    <postCodeIdentifier>2630</postCodeIdentifier>
    <districtName>Taastrup</districtName>
    <districtSubDivisionIdentifier></districtSubDivisionIdentifier>
    <latitude>55.65295346</latitude>
    <longitude>12.30204189</longitude>
  </Location>
  <Location>
    <streetName>Tune Center</streetName>
    <streetBuildingIdentifier>9</streetBuildingIdentifier>
    <postCodeIdentifier>4030</postCodeIdentifier>
    <districtName>Tune</districtName>
    <districtSubDivisionIdentifier></districtSubDivisionIdentifier>
    <latitude>55.59584542</latitude>
    <longitude>12.17856801</longitude>
  </Location>
  <Location>
    <streetName>Dorphs Allé</streetName>
    <streetBuildingIdentifier>10</streetBuildingIdentifier>
    <postCodeIdentifier>2630</postCodeIdentifier>
    <districtName>Taastrup</districtName>
    <districtSubDivisionIdentifier></districtSubDivisionIdentifier>
    <latitude>55.64892738</latitude>
    <longitude>12.30364252</longitude>
  </Location>
  <Location>
    <streetName>Toftegårds Allé</streetName>
    <streetBuildingIdentifier>30</streetBuildingIdentifier>
    <postCodeIdentifier>2500</postCodeIdentifier>
    <districtName>Valby</districtName>
    <districtSubDivisionIdentifier></districtSubDivisionIdentifier>
    <latitude>55.6642543</latitude>
    <longitude>12.51582501</longitude>
  </Location>
  <Location>
    <streetName>Faaborgvej</streetName>
    <streetBuildingIdentifier>118</streetBuildingIdentifier>
    <postCodeIdentifier>5250</postCodeIdentifier>
    <districtName>Odense SV</districtName>
    <districtSubDivisionIdentifier></districtSubDivisionIdentifier>
    <latitude>55.3681066</latitude>
    <longitude>10.357569</longitude>
  </Location>
  <Location>
    <streetName>Egelundsvej</streetName>
    <streetBuildingIdentifier>24</streetBuildingIdentifier>
    <postCodeIdentifier>2620</postCodeIdentifier>
    <districtName>Albertslund</districtName>
    <districtSubDivisionIdentifier></districtSubDivisionIdentifier>
    <latitude>55.67105586</latitude>
    <longitude>12.33974464</longitude>
  </Location>
  <Location>
    <streetName>Jyllingecentret</streetName>
    <streetBuildingIdentifier>12C</streetBuildingIdentifier>
    <postCodeIdentifier>4040</postCodeIdentifier>
    <districtName>Jyllinge</districtName>
    <districtSubDivisionIdentifier></districtSubDivisionIdentifier>
    <latitude>55.75054293</latitude>
    <longitude>12.10768388</longitude>
  </Location>
  <Location>
    <streetName>Hovedgaden</streetName>
    <streetBuildingIdentifier>417</streetBuildingIdentifier>
    <postCodeIdentifier>2640</postCodeIdentifier>
    <districtName>Hedehusene</districtName>
    <districtSubDivisionIdentifier></districtSubDivisionIdentifier>
    <latitude>55.64955554</latitude>
    <longitude>12.2009991</longitude>
  </Location>
  <Location>
    <streetName>Svendborgvej</streetName>
    <streetBuildingIdentifier>80</streetBuildingIdentifier>
    <postCodeIdentifier>5260</postCodeIdentifier>
    <districtName>Odense S</districtName>
    <districtSubDivisionIdentifier></districtSubDivisionIdentifier>
    <latitude>55.35832205</latitude>
    <longitude>10.39804449</longitude>
  </Location>
  <Location>
    <streetName>Seminarievej</streetName>
    <streetBuildingIdentifier>7</streetBuildingIdentifier>
    <postCodeIdentifier>6760</postCodeIdentifier>
    <districtName>Ribe</districtName>
    <districtSubDivisionIdentifier></districtSubDivisionIdentifier>
    <latitude>55.33121864</latitude>
    <longitude>8.77093477</longitude>
  </Location>
  <Location>
    <streetName>Bispensgade</streetName>
    <streetBuildingIdentifier>87</streetBuildingIdentifier>
    <postCodeIdentifier>9800</postCodeIdentifier>
    <districtName>Hjørring</districtName>
    <districtSubDivisionIdentifier></districtSubDivisionIdentifier>
    <latitude>57.44879988</latitude>
    <longitude>9.99605991</longitude>
  </Location>
  <Location>
    <streetName>Fiolstræde</streetName>
    <streetBuildingIdentifier>9</streetBuildingIdentifier>
    <postCodeIdentifier>1171</postCodeIdentifier>
    <districtName>København K</districtName>
    <districtSubDivisionIdentifier></districtSubDivisionIdentifier>
    <latitude>55.68129279</latitude>
    <longitude>12.57246665</longitude>
  </Location>
  <Location>
    <streetName>Jagtvej</streetName>
    <streetBuildingIdentifier>145</streetBuildingIdentifier>
    <postCodeIdentifier>2200</postCodeIdentifier>
    <districtName>København N</districtName>
    <districtSubDivisionIdentifier></districtSubDivisionIdentifier>
    <latitude>55.69893853</latitude>
    <longitude>12.55376186</longitude>
  </Location>
  <Location>
    <streetName>Solrød Center</streetName>
    <streetBuildingIdentifier>84</streetBuildingIdentifier>
    <postCodeIdentifier>2680</postCodeIdentifier>
    <districtName>Solrød Strand</districtName>
    <districtSubDivisionIdentifier></districtSubDivisionIdentifier>
    <latitude>55.53299123</latitude>
    <longitude>12.22022452</longitude>
  </Location>
  <Location>
    <streetName>Nørre Boulevard</streetName>
    <streetBuildingIdentifier>131</streetBuildingIdentifier>
    <postCodeIdentifier>4600</postCodeIdentifier>
    <districtName>Køge</districtName>
    <districtSubDivisionIdentifier></districtSubDivisionIdentifier>
    <latitude>55.46739121</latitude>
    <longitude>12.18084465</longitude>
  </Location>
  <Location>
    <streetName>Kristen Bernikows Gade</streetName>
    <streetBuildingIdentifier>2</streetBuildingIdentifier>
    <postCodeIdentifier>1105</postCodeIdentifier>
    <districtName>København K</districtName>
    <districtSubDivisionIdentifier></districtSubDivisionIdentifier>
    <latitude>55.6800585</latitude>
    <longitude>12.58241171</longitude>
  </Location>
  <Location>
    <streetName>Torpenvej</streetName>
    <streetBuildingIdentifier>10</streetBuildingIdentifier>
    <postCodeIdentifier>3050</postCodeIdentifier>
    <districtName>Humlebæk</districtName>
    <districtSubDivisionIdentifier></districtSubDivisionIdentifier>
    <latitude>55.96778812</latitude>
    <longitude>12.52242639</longitude>
  </Location>
  <Location>
    <streetName>Skansevej</streetName>
    <streetBuildingIdentifier>12</streetBuildingIdentifier>
    <postCodeIdentifier>3400</postCodeIdentifier>
    <districtName>Hillerød</districtName>
    <districtSubDivisionIdentifier></districtSubDivisionIdentifier>
    <latitude>55.93332964</latitude>
    <longitude>12.32142149</longitude>
  </Location>
  <Location>
    <streetName>Store Torv</streetName>
    <streetBuildingIdentifier>3</streetBuildingIdentifier>
    <postCodeIdentifier>3700</postCodeIdentifier>
    <districtName>Rønne</districtName>
    <districtSubDivisionIdentifier></districtSubDivisionIdentifier>
    <latitude>55.10221345</latitude>
    <longitude>14.69958423</longitude>
  </Location>
  <Location>
    <streetName>Rosengården</streetName>
    <streetBuildingIdentifier>1</streetBuildingIdentifier>
    <postCodeIdentifier>4200</postCodeIdentifier>
    <districtName>Slagelse</districtName>
    <districtSubDivisionIdentifier></districtSubDivisionIdentifier>
    <latitude>55.40259412</latitude>
    <longitude>11.35294877</longitude>
  </Location>
  <Location>
    <streetName>Gedservej</streetName>
    <streetBuildingIdentifier>150</streetBuildingIdentifier>
    <postCodeIdentifier>4800</postCodeIdentifier>
    <districtName>Nykøbing F</districtName>
    <districtSubDivisionIdentifier></districtSubDivisionIdentifier>
    <latitude>54.75609233</latitude>
    <longitude>11.88893527</longitude>
  </Location>
  <Location>
    <streetName>Vodskovvej</streetName>
    <streetBuildingIdentifier>31</streetBuildingIdentifier>
    <postCodeIdentifier>9310</postCodeIdentifier>
    <districtName>Vodskov</districtName>
    <districtSubDivisionIdentifier></districtSubDivisionIdentifier>
    <latitude>57.10428721</latitude>
    <longitude>10.02815415</longitude>
  </Location>
  <Location>
    <streetName>Sølvgade</streetName>
    <streetBuildingIdentifier>10</streetBuildingIdentifier>
    <postCodeIdentifier>1307</postCodeIdentifier>
    <districtName>København K</districtName>
    <districtSubDivisionIdentifier></districtSubDivisionIdentifier>
    <latitude>55.68606371</latitude>
    <longitude>12.58399595</longitude>
  </Location>
  <Location>
    <streetName>Stærevej</streetName>
    <streetBuildingIdentifier>74</streetBuildingIdentifier>
    <postCodeIdentifier>2400</postCodeIdentifier>
    <districtName>København NV</districtName>
    <districtSubDivisionIdentifier></districtSubDivisionIdentifier>
    <latitude>55.70154828</latitude>
    <longitude>12.52126211</longitude>
  </Location>
  <Location>
    <streetName>Kongelundsvej</streetName>
    <streetBuildingIdentifier>49</streetBuildingIdentifier>
    <postCodeIdentifier>2300</postCodeIdentifier>
    <districtName>København S</districtName>
    <districtSubDivisionIdentifier></districtSubDivisionIdentifier>
    <latitude>55.63908308</latitude>
    <longitude>12.5891591</longitude>
  </Location>
  <Location>
    <streetName>Gentoftegade</streetName>
    <streetBuildingIdentifier>74</streetBuildingIdentifier>
    <postCodeIdentifier>2820</postCodeIdentifier>
    <districtName>Gentofte</districtName>
    <districtSubDivisionIdentifier></districtSubDivisionIdentifier>
    <latitude>55.74511875</latitude>
    <longitude>12.54073156</longitude>
  </Location>
  <Location>
    <streetName>Stadionvej</streetName>
    <streetBuildingIdentifier>2</streetBuildingIdentifier>
    <postCodeIdentifier>6440</postCodeIdentifier>
    <districtName>Augustenborg</districtName>
    <districtSubDivisionIdentifier></districtSubDivisionIdentifier>
    <latitude>54.95058662</latitude>
    <longitude>9.87614777</longitude>
  </Location>
  <Location>
    <streetName>Svinget</streetName>
    <streetBuildingIdentifier>1</streetBuildingIdentifier>
    <postCodeIdentifier>7160</postCodeIdentifier>
    <districtName>Tørring</districtName>
    <districtSubDivisionIdentifier></districtSubDivisionIdentifier>
    <latitude>55.84896983</latitude>
    <longitude>9.47605396</longitude>
  </Location>
  <Location>
    <streetName>Nørrebrogade</streetName>
    <streetBuildingIdentifier>43</streetBuildingIdentifier>
    <postCodeIdentifier>2200</postCodeIdentifier>
    <districtName>København N</districtName>
    <districtSubDivisionIdentifier></districtSubDivisionIdentifier>
    <latitude>55.68886011</latitude>
    <longitude>12.55774919</longitude>
  </Location>
  <Location>
    <streetName>Smakkegårdsvej</streetName>
    <streetBuildingIdentifier>114</streetBuildingIdentifier>
    <postCodeIdentifier>2820</postCodeIdentifier>
    <districtName>Gentofte</districtName>
    <districtSubDivisionIdentifier></districtSubDivisionIdentifier>
    <latitude>55.7616398</latitude>
    <longitude>12.52623532</longitude>
  </Location>
  <Location>
    <streetName>Åderupvej</streetName>
    <streetBuildingIdentifier>1</streetBuildingIdentifier>
    <postCodeIdentifier>4700</postCodeIdentifier>
    <districtName>Næstved</districtName>
    <districtSubDivisionIdentifier></districtSubDivisionIdentifier>
    <latitude>55.21855148</latitude>
    <longitude>11.75272734</longitude>
  </Location>
  <Location>
    <streetName>Jernbanegade</streetName>
    <streetBuildingIdentifier>1</streetBuildingIdentifier>
    <postCodeIdentifier>6780</postCodeIdentifier>
    <districtName>Skærbæk</districtName>
    <districtSubDivisionIdentifier></districtSubDivisionIdentifier>
    <latitude>55.15839559</latitude>
    <longitude>8.7694151</longitude>
  </Location>
  <Location>
    <streetName>Store Kongensgade</streetName>
    <streetBuildingIdentifier>47</streetBuildingIdentifier>
    <postCodeIdentifier>1264</postCodeIdentifier>
    <districtName>København K</districtName>
    <districtSubDivisionIdentifier></districtSubDivisionIdentifier>
    <latitude>55.68347304</latitude>
    <longitude>12.5867986</longitude>
  </Location>
  <Location>
    <streetName>Hedeparken</streetName>
    <streetBuildingIdentifier>15</streetBuildingIdentifier>
    <postCodeIdentifier>2750</postCodeIdentifier>
    <districtName>Ballerup</districtName>
    <districtSubDivisionIdentifier></districtSubDivisionIdentifier>
    <latitude>55.7190544</latitude>
    <longitude>12.35966082</longitude>
  </Location>
  <Location>
    <streetName>Bavnager</streetName>
    <streetBuildingIdentifier>236</streetBuildingIdentifier>
    <postCodeIdentifier>3310</postCodeIdentifier>
    <districtName>Ølsted</districtName>
    <districtSubDivisionIdentifier></districtSubDivisionIdentifier>
    <latitude>55.92479349</latitude>
    <longitude>12.07166999</longitude>
  </Location>
  <Location>
    <streetName>Halvtolv</streetName>
    <streetBuildingIdentifier>4</streetBuildingIdentifier>
    <postCodeIdentifier>1436</postCodeIdentifier>
    <districtName>København K</districtName>
    <districtSubDivisionIdentifier></districtSubDivisionIdentifier>
    <latitude>55.67806184</latitude>
    <longitude>12.6026777</longitude>
  </Location>
  <Location>
    <streetName>Gammel Kongevej</streetName>
    <streetBuildingIdentifier>123</streetBuildingIdentifier>
    <postCodeIdentifier>1850</postCodeIdentifier>
    <districtName>Frederiksberg C</districtName>
    <districtSubDivisionIdentifier></districtSubDivisionIdentifier>
    <latitude>55.67612544</latitude>
    <longitude>12.54230266</longitude>
  </Location>
  <Location>
    <streetName>Banetoften</streetName>
    <streetBuildingIdentifier>30</streetBuildingIdentifier>
    <postCodeIdentifier>2750</postCodeIdentifier>
    <districtName>Ballerup</districtName>
    <districtSubDivisionIdentifier></districtSubDivisionIdentifier>
    <latitude>55.72981722</latitude>
    <longitude>12.35701704</longitude>
  </Location>
  <Location>
    <streetName>Erritsø Bygade</streetName>
    <streetBuildingIdentifier>115</streetBuildingIdentifier>
    <postCodeIdentifier>7000</postCodeIdentifier>
    <districtName>Fredericia</districtName>
    <districtSubDivisionIdentifier></districtSubDivisionIdentifier>
    <latitude>55.54347426</latitude>
    <longitude>9.71882267</longitude>
  </Location>
  <Location>
    <streetName>Bredgade</streetName>
    <streetBuildingIdentifier>40</streetBuildingIdentifier>
    <postCodeIdentifier>6920</postCodeIdentifier>
    <districtName>Videbæk</districtName>
    <districtSubDivisionIdentifier></districtSubDivisionIdentifier>
    <latitude>56.09140827</latitude>
    <longitude>8.62954252</longitude>
  </Location>
  <Location>
    <streetName>Hollænderdybet</streetName>
    <streetBuildingIdentifier>3</streetBuildingIdentifier>
    <postCodeIdentifier>2300</postCodeIdentifier>
    <districtName>København S</districtName>
    <districtSubDivisionIdentifier></districtSubDivisionIdentifier>
    <latitude>55.66456696</latitude>
    <longitude>12.59863655</longitude>
  </Location>
  <Location>
    <streetName>Nordre Frihavnsgade</streetName>
    <streetBuildingIdentifier>70</streetBuildingIdentifier>
    <postCodeIdentifier>2100</postCodeIdentifier>
    <districtName>København Ø</districtName>
    <districtSubDivisionIdentifier></districtSubDivisionIdentifier>
    <latitude>55.70294328</latitude>
    <longitude>12.58516035</longitude>
  </Location>
  <Location>
    <streetName>Vasevej</streetName>
    <streetBuildingIdentifier>115</streetBuildingIdentifier>
    <postCodeIdentifier>3460</postCodeIdentifier>
    <districtName>Birkerød</districtName>
    <districtSubDivisionIdentifier></districtSubDivisionIdentifier>
    <latitude>55.82733406</latitude>
    <longitude>12.43313026</longitude>
  </Location>
  <Location>
    <streetName>Ejbovej</streetName>
    <streetBuildingIdentifier>75</streetBuildingIdentifier>
    <postCodeIdentifier>4632</postCodeIdentifier>
    <districtName>Bjæverskov</districtName>
    <districtSubDivisionIdentifier></districtSubDivisionIdentifier>
    <latitude>55.46062898</latitude>
    <longitude>12.03696205</longitude>
  </Location>
  <Location>
    <streetName>Vestenborg Alle</streetName>
    <streetBuildingIdentifier>29</streetBuildingIdentifier>
    <postCodeIdentifier>4800</postCodeIdentifier>
    <districtName>Nykøbing F</districtName>
    <districtSubDivisionIdentifier></districtSubDivisionIdentifier>
    <latitude>54.77142973</latitude>
    <longitude>11.86889493</longitude>
  </Location>
  <Location>
    <streetName>Lyneborggade</streetName>
    <streetBuildingIdentifier>5</streetBuildingIdentifier>
    <postCodeIdentifier>2300</postCodeIdentifier>
    <districtName>København S</districtName>
    <districtSubDivisionIdentifier></districtSubDivisionIdentifier>
    <latitude>55.66521129</latitude>
    <longitude>12.60975197</longitude>
  </Location>
  <Location>
    <streetName>Søbækken</streetName>
    <streetBuildingIdentifier>2</streetBuildingIdentifier>
    <postCodeIdentifier>3730</postCodeIdentifier>
    <districtName>Nexø</districtName>
    <districtSubDivisionIdentifier></districtSubDivisionIdentifier>
    <latitude>55.05659336</latitude>
    <longitude>15.12862983</longitude>
  </Location>
  <Location>
    <streetName>Fredensgade</streetName>
    <streetBuildingIdentifier>8</streetBuildingIdentifier>
    <postCodeIdentifier>7323</postCodeIdentifier>
    <districtName>Give</districtName>
    <districtSubDivisionIdentifier></districtSubDivisionIdentifier>
    <latitude>55.84495262</latitude>
    <longitude>9.23308289</longitude>
  </Location>
  <Location>
    <streetName>Ølandsgade</streetName>
    <streetBuildingIdentifier>1</streetBuildingIdentifier>
    <postCodeIdentifier>2300</postCodeIdentifier>
    <districtName>København S</districtName>
    <districtSubDivisionIdentifier></districtSubDivisionIdentifier>
    <latitude>55.6617116</latitude>
    <longitude>12.60247819</longitude>
  </Location>
  <Location>
    <streetName>Ørestads Boulevard</streetName>
    <streetBuildingIdentifier>70</streetBuildingIdentifier>
    <postCodeIdentifier>2300</postCodeIdentifier>
    <districtName>København S</districtName>
    <districtSubDivisionIdentifier></districtSubDivisionIdentifier>
    <latitude>55.63241585</latitude>
    <longitude>12.58007697</longitude>
  </Location>
  <Location>
    <streetName>Rismarksvej</streetName>
    <streetBuildingIdentifier>39</streetBuildingIdentifier>
    <postCodeIdentifier>5200</postCodeIdentifier>
    <districtName>Odense V</districtName>
    <districtSubDivisionIdentifier></districtSubDivisionIdentifier>
    <latitude>55.39839606</latitude>
    <longitude>10.3400841</longitude>
  </Location>
  <Location>
    <streetName>Østergade</streetName>
    <streetBuildingIdentifier>55</streetBuildingIdentifier>
    <postCodeIdentifier>9800</postCodeIdentifier>
    <districtName>Hjørring</districtName>
    <districtSubDivisionIdentifier></districtSubDivisionIdentifier>
    <latitude>57.45770215</latitude>
    <longitude>9.99381849</longitude>
  </Location>
  <Location>
    <streetName>Gasværksvej</streetName>
    <streetBuildingIdentifier>16</streetBuildingIdentifier>
    <postCodeIdentifier>1656</postCodeIdentifier>
    <districtName>København V</districtName>
    <districtSubDivisionIdentifier></districtSubDivisionIdentifier>
    <latitude>55.67079006</latitude>
    <longitude>12.55701423</longitude>
  </Location>
  <Location>
    <streetName>Madvigs Plads</streetName>
    <streetBuildingIdentifier>10B</streetBuildingIdentifier>
    <postCodeIdentifier>4500</postCodeIdentifier>
    <districtName>Nykøbing Sj</districtName>
    <districtSubDivisionIdentifier></districtSubDivisionIdentifier>
    <latitude>55.92320209</latitude>
    <longitude>11.66757185</longitude>
  </Location>
  <Location>
    <streetName>Magnoliavej</streetName>
    <streetBuildingIdentifier>1</streetBuildingIdentifier>
    <postCodeIdentifier>5250</postCodeIdentifier>
    <districtName>Odense SV</districtName>
    <districtSubDivisionIdentifier></districtSubDivisionIdentifier>
    <latitude>55.3571199</latitude>
    <longitude>10.34091355</longitude>
  </Location>
  <Location>
    <streetName>Rued Langgaardsvej</streetName>
    <streetBuildingIdentifier>2A</streetBuildingIdentifier>
    <postCodeIdentifier>2300</postCodeIdentifier>
    <districtName>København S</districtName>
    <districtSubDivisionIdentifier></districtSubDivisionIdentifier>
    <latitude>55.66032247</latitude>
    <longitude>12.59282263</longitude>
  </Location>
  <Location>
    <streetName>Lovvej</streetName>
    <streetBuildingIdentifier>1A</streetBuildingIdentifier>
    <postCodeIdentifier>4700</postCodeIdentifier>
    <districtName>Næstved</districtName>
    <districtSubDivisionIdentifier></districtSubDivisionIdentifier>
    <latitude>55.18335337</latitude>
    <longitude>11.86481574</longitude>
  </Location>
  <Location>
    <streetName>Lollands Centret</streetName>
    <streetBuildingIdentifier>22</streetBuildingIdentifier>
    <postCodeIdentifier>4930</postCodeIdentifier>
    <districtName>Maribo</districtName>
    <districtSubDivisionIdentifier></districtSubDivisionIdentifier>
    <latitude>54.77419583</latitude>
    <longitude>11.50561178</longitude>
  </Location>
  <Location>
    <streetName>Nørregade</streetName>
    <streetBuildingIdentifier>43</streetBuildingIdentifier>
    <postCodeIdentifier>6330</postCodeIdentifier>
    <districtName>Padborg</districtName>
    <districtSubDivisionIdentifier></districtSubDivisionIdentifier>
    <latitude>54.8254831</latitude>
    <longitude>9.36293461</longitude>
  </Location>
  <Location>
    <streetName>Backersvej</streetName>
    <streetBuildingIdentifier>19</streetBuildingIdentifier>
    <postCodeIdentifier>2300</postCodeIdentifier>
    <districtName>København S</districtName>
    <districtSubDivisionIdentifier></districtSubDivisionIdentifier>
    <latitude>55.65966537</latitude>
    <longitude>12.61913448</longitude>
  </Location>
  <Location>
    <streetName>Hovedgaden</streetName>
    <streetBuildingIdentifier>42</streetBuildingIdentifier>
    <postCodeIdentifier>4520</postCodeIdentifier>
    <districtName>Svinninge</districtName>
    <districtSubDivisionIdentifier></districtSubDivisionIdentifier>
    <latitude>55.72215764</latitude>
    <longitude>11.46195309</longitude>
  </Location>
  <Location>
    <streetName>Benediktsgade</streetName>
    <streetBuildingIdentifier>30</streetBuildingIdentifier>
    <postCodeIdentifier>5000</postCodeIdentifier>
    <districtName>Odense C</districtName>
    <districtSubDivisionIdentifier></districtSubDivisionIdentifier>
    <latitude>55.39319011</latitude>
    <longitude>10.39891164</longitude>
  </Location>
  <Location>
    <streetName>Mølmarksvej</streetName>
    <streetBuildingIdentifier>50</streetBuildingIdentifier>
    <postCodeIdentifier>5700</postCodeIdentifier>
    <districtName>Svendborg</districtName>
    <districtSubDivisionIdentifier></districtSubDivisionIdentifier>
    <latitude>55.06826102</latitude>
    <longitude>10.60740385</longitude>
  </Location>
  <Location>
    <streetName>Randersvej</streetName>
    <streetBuildingIdentifier>5</streetBuildingIdentifier>
    <postCodeIdentifier>8800</postCodeIdentifier>
    <districtName>Viborg</districtName>
    <districtSubDivisionIdentifier></districtSubDivisionIdentifier>
    <latitude>56.44793414</latitude>
    <longitude>9.4348009</longitude>
  </Location>
  <Location>
    <streetName>Furden</streetName>
    <streetBuildingIdentifier>1</streetBuildingIdentifier>
    <postCodeIdentifier>8305</postCodeIdentifier>
    <districtName>Samsø</districtName>
    <districtSubDivisionIdentifier></districtSubDivisionIdentifier>
    <latitude>55.82824457</latitude>
    <longitude>10.59455892</longitude>
  </Location>
  <Location>
    <streetName>Østergade</streetName>
    <streetBuildingIdentifier>24</streetBuildingIdentifier>
    <postCodeIdentifier>9700</postCodeIdentifier>
    <districtName>Brønderslev</districtName>
    <districtSubDivisionIdentifier></districtSubDivisionIdentifier>
    <latitude>57.26611495</latitude>
    <longitude>9.94666985</longitude>
  </Location>
  <Location>
    <streetName>Amerika plads</streetName>
    <streetBuildingIdentifier>1</streetBuildingIdentifier>
    <postCodeIdentifier>2100</postCodeIdentifier>
    <districtName>København Ø</districtName>
    <districtSubDivisionIdentifier></districtSubDivisionIdentifier>
    <latitude>55.69808436</latitude>
    <longitude>12.59449085</longitude>
  </Location>
  <Location>
    <streetName>Blegdamsvej</streetName>
    <streetBuildingIdentifier>118</streetBuildingIdentifier>
    <postCodeIdentifier>2100</postCodeIdentifier>
    <districtName>København Ø</districtName>
    <districtSubDivisionIdentifier></districtSubDivisionIdentifier>
    <latitude>55.69791226</latitude>
    <longitude>12.57484393</longitude>
  </Location>
  <Location>
    <streetName>Østerbrogade</streetName>
    <streetBuildingIdentifier>79</streetBuildingIdentifier>
    <postCodeIdentifier>2100</postCodeIdentifier>
    <districtName>København Ø</districtName>
    <districtSubDivisionIdentifier></districtSubDivisionIdentifier>
    <latitude>55.70409262</latitude>
    <longitude>12.57720821</longitude>
  </Location>
  <Location>
    <streetName>Niels Olsens vej</streetName>
    <streetBuildingIdentifier>2</streetBuildingIdentifier>
    <postCodeIdentifier>3650</postCodeIdentifier>
    <districtName>Ølstykke</districtName>
    <districtSubDivisionIdentifier></districtSubDivisionIdentifier>
    <latitude>55.78030364</latitude>
    <longitude>12.17330547</longitude>
  </Location>
  <Location>
    <streetName>Munkholmvej</streetName>
    <streetBuildingIdentifier>141</streetBuildingIdentifier>
    <postCodeIdentifier>4300</postCodeIdentifier>
    <districtName>Holbæk</districtName>
    <districtSubDivisionIdentifier></districtSubDivisionIdentifier>
    <latitude>55.71342763</latitude>
    <longitude>11.74555391</longitude>
  </Location>
  <Location>
    <streetName>Axel Heides Gade</streetName>
    <streetBuildingIdentifier>7</streetBuildingIdentifier>
    <postCodeIdentifier>2300</postCodeIdentifier>
    <districtName>København S</districtName>
    <districtSubDivisionIdentifier></districtSubDivisionIdentifier>
    <latitude>55.66029435</latitude>
    <longitude>12.5725557</longitude>
  </Location>
  <Location>
    <streetName>Middelgrundsvej</streetName>
    <streetBuildingIdentifier>3</streetBuildingIdentifier>
    <postCodeIdentifier>2300</postCodeIdentifier>
    <districtName>København S</districtName>
    <districtSubDivisionIdentifier></districtSubDivisionIdentifier>
    <latitude>55.65705479</latitude>
    <longitude>12.60977978</longitude>
  </Location>
  <Location>
    <streetName>Jydeholmen</streetName>
    <streetBuildingIdentifier>53</streetBuildingIdentifier>
    <postCodeIdentifier>2720</postCodeIdentifier>
    <districtName>Vanløse</districtName>
    <districtSubDivisionIdentifier></districtSubDivisionIdentifier>
    <latitude>55.68487921</latitude>
    <longitude>12.48470032</longitude>
  </Location>
  <Location>
    <streetName>Apotekervej</streetName>
    <streetBuildingIdentifier>21</streetBuildingIdentifier>
    <postCodeIdentifier>4180</postCodeIdentifier>
    <districtName>Sorø</districtName>
    <districtSubDivisionIdentifier></districtSubDivisionIdentifier>
    <latitude>55.44557212</latitude>
    <longitude>11.56340752</longitude>
  </Location>
  <Location>
    <streetName>Østergade</streetName>
    <streetBuildingIdentifier>29</streetBuildingIdentifier>
    <postCodeIdentifier>9440</postCodeIdentifier>
    <districtName>Aabybro</districtName>
    <districtSubDivisionIdentifier></districtSubDivisionIdentifier>
    <latitude>57.16004895</latitude>
    <longitude>9.7324814</longitude>
  </Location>
  <Location>
    <streetName>Korsørgade</streetName>
    <streetBuildingIdentifier>1</streetBuildingIdentifier>
    <postCodeIdentifier>2100</postCodeIdentifier>
    <districtName>København Ø</districtName>
    <districtSubDivisionIdentifier></districtSubDivisionIdentifier>
    <latitude>55.70729313</latitude>
    <longitude>12.58030381</longitude>
  </Location>
  <Location>
    <streetName>Bymidten</streetName>
    <streetBuildingIdentifier>90</streetBuildingIdentifier>
    <postCodeIdentifier>3500</postCodeIdentifier>
    <districtName>Værløse</districtName>
    <districtSubDivisionIdentifier></districtSubDivisionIdentifier>
    <latitude>55.78301343</latitude>
    <longitude>12.37419874</longitude>
  </Location>
  <Location>
    <streetName>Wendorfsvej</streetName>
    <streetBuildingIdentifier>4</streetBuildingIdentifier>
    <postCodeIdentifier>3480</postCodeIdentifier>
    <districtName>Fredensborg</districtName>
    <districtSubDivisionIdentifier></districtSubDivisionIdentifier>
    <latitude>55.97911985</latitude>
    <longitude>12.40241598</longitude>
  </Location>
  <Location>
    <streetName>Akacietorvet</streetName>
    <streetBuildingIdentifier>1</streetBuildingIdentifier>
    <postCodeIdentifier>3520</postCodeIdentifier>
    <districtName>Farum</districtName>
    <districtSubDivisionIdentifier></districtSubDivisionIdentifier>
    <latitude>55.80859136</latitude>
    <longitude>12.35850036</longitude>
  </Location>
  <Location>
    <streetName>Frejasvej</streetName>
    <streetBuildingIdentifier>28</streetBuildingIdentifier>
    <postCodeIdentifier>4300</postCodeIdentifier>
    <districtName>Holbæk</districtName>
    <districtSubDivisionIdentifier></districtSubDivisionIdentifier>
    <latitude>55.70405084</latitude>
    <longitude>11.67271915</longitude>
  </Location>
  <Location>
    <streetName>Vestergade</streetName>
    <streetBuildingIdentifier>23</streetBuildingIdentifier>
    <postCodeIdentifier>7900</postCodeIdentifier>
    <districtName>Nykøbing M</districtName>
    <districtSubDivisionIdentifier></districtSubDivisionIdentifier>
    <latitude>56.79352593</latitude>
    <longitude>8.85447878</longitude>
  </Location>
  <Location>
    <streetName>Jagtvej 223</streetName>
    <streetBuildingIdentifier>2</streetBuildingIdentifier>
    <postCodeIdentifier>2100</postCodeIdentifier>
    <districtName>København Ø</districtName>
    <districtSubDivisionIdentifier></districtSubDivisionIdentifier>
    <latitude>55.70912165</latitude>
    <longitude>12.57588455</longitude>
  </Location>
  <Location>
    <streetName>Nygade</streetName>
    <streetBuildingIdentifier>16</streetBuildingIdentifier>
    <postCodeIdentifier>3600</postCodeIdentifier>
    <districtName>Frederikssund</districtName>
    <districtSubDivisionIdentifier></districtSubDivisionIdentifier>
    <latitude>55.83589768</latitude>
    <longitude>12.06279929</longitude>
  </Location>
  <Location>
    <streetName>Østerbrogade</streetName>
    <streetBuildingIdentifier>238</streetBuildingIdentifier>
    <postCodeIdentifier>2100</postCodeIdentifier>
    <districtName>København Ø</districtName>
    <districtSubDivisionIdentifier></districtSubDivisionIdentifier>
    <latitude>55.71434207</latitude>
    <longitude>12.57785926</longitude>
  </Location>
  <Location>
    <streetName>Tranehavevej</streetName>
    <streetBuildingIdentifier>1</streetBuildingIdentifier>
    <postCodeIdentifier>2450</postCodeIdentifier>
    <districtName>København SV</districtName>
    <districtSubDivisionIdentifier></districtSubDivisionIdentifier>
    <latitude>55.65552743</latitude>
    <longitude>12.53694147</longitude>
  </Location>
  <Location>
    <streetName>Peter Bangs Vej</streetName>
    <streetBuildingIdentifier>100</streetBuildingIdentifier>
    <postCodeIdentifier>2000</postCodeIdentifier>
    <districtName>Frederiksberg</districtName>
    <districtSubDivisionIdentifier></districtSubDivisionIdentifier>
    <latitude>55.67876429</latitude>
    <longitude>12.5030289</longitude>
  </Location>
  <Location>
    <streetName>Sydfrontvej</streetName>
    <streetBuildingIdentifier>2</streetBuildingIdentifier>
    <postCodeIdentifier>2730</postCodeIdentifier>
    <districtName>Herlev</districtName>
    <districtSubDivisionIdentifier></districtSubDivisionIdentifier>
    <latitude>55.73533438</latitude>
    <longitude>12.45976561</longitude>
  </Location>
  <Location>
    <streetName>Gentoftegade</streetName>
    <streetBuildingIdentifier>35</streetBuildingIdentifier>
    <postCodeIdentifier>2820</postCodeIdentifier>
    <districtName>Gentofte</districtName>
    <districtSubDivisionIdentifier></districtSubDivisionIdentifier>
    <latitude>55.74736104</latitude>
    <longitude>12.54123776</longitude>
  </Location>
  <Location>
    <streetName>Lyngbyvej</streetName>
    <streetBuildingIdentifier>237</streetBuildingIdentifier>
    <postCodeIdentifier>2900</postCodeIdentifier>
    <districtName>Hellerup</districtName>
    <districtSubDivisionIdentifier></districtSubDivisionIdentifier>
    <latitude>55.72757027</latitude>
    <longitude>12.54964139</longitude>
  </Location>
  <Location>
    <streetName>Vesterbrogade</streetName>
    <streetBuildingIdentifier>52</streetBuildingIdentifier>
    <postCodeIdentifier>7000</postCodeIdentifier>
    <districtName>Fredericia</districtName>
    <districtSubDivisionIdentifier></districtSubDivisionIdentifier>
    <latitude>55.56925168</latitude>
    <longitude>9.74342994</longitude>
  </Location>
  <Location>
    <streetName>Gyldenbjergsvej</streetName>
    <streetBuildingIdentifier>5</streetBuildingIdentifier>
    <postCodeIdentifier>5700</postCodeIdentifier>
    <districtName>Svendborg</districtName>
    <districtSubDivisionIdentifier></districtSubDivisionIdentifier>
    <latitude>55.06172875</latitude>
    <longitude>10.58672292</longitude>
  </Location>
  <Location>
    <streetName>Jernbanegade</streetName>
    <streetBuildingIdentifier>48</streetBuildingIdentifier>
    <postCodeIdentifier>6000</postCodeIdentifier>
    <districtName>Kolding</districtName>
    <districtSubDivisionIdentifier></districtSubDivisionIdentifier>
    <latitude>55.49019157</latitude>
    <longitude>9.47925141</longitude>
  </Location>
  <Location>
    <streetName>Søtoften</streetName>
    <streetBuildingIdentifier>2A</streetBuildingIdentifier>
    <postCodeIdentifier>8660</postCodeIdentifier>
    <districtName>Skanderborg</districtName>
    <districtSubDivisionIdentifier></districtSubDivisionIdentifier>
    <latitude>56.03219558</latitude>
    <longitude>9.93006604</longitude>
  </Location>
  <Location>
    <streetName>Nygårdsvej</streetName>
    <streetBuildingIdentifier>35</streetBuildingIdentifier>
    <postCodeIdentifier>2100</postCodeIdentifier>
    <districtName>København Ø</districtName>
    <districtSubDivisionIdentifier></districtSubDivisionIdentifier>
    <latitude>55.71180429</latitude>
    <longitude>12.57176588</longitude>
  </Location>
  <Location>
    <streetName>Stenløse Center</streetName>
    <streetBuildingIdentifier>10</streetBuildingIdentifier>
    <postCodeIdentifier>3660</postCodeIdentifier>
    <districtName>Stenløse</districtName>
    <districtSubDivisionIdentifier></districtSubDivisionIdentifier>
    <latitude>55.76833347</latitude>
    <longitude>12.19281159</longitude>
  </Location>
  <Location>
    <streetName>Tagensvej</streetName>
    <streetBuildingIdentifier>47</streetBuildingIdentifier>
    <postCodeIdentifier>2200</postCodeIdentifier>
    <districtName>København N</districtName>
    <districtSubDivisionIdentifier></districtSubDivisionIdentifier>
    <latitude>55.6999467</latitude>
    <longitude>12.55278668</longitude>
  </Location>
  <Location>
    <streetName>Kongensgade</streetName>
    <streetBuildingIdentifier>25</streetBuildingIdentifier>
    <postCodeIdentifier>3550</postCodeIdentifier>
    <districtName>Slangerup</districtName>
    <districtSubDivisionIdentifier></districtSubDivisionIdentifier>
    <latitude>55.84751305</latitude>
    <longitude>12.17199277</longitude>
  </Location>
  <Location>
    <streetName>Østre Ringvej</streetName>
    <streetBuildingIdentifier>2</streetBuildingIdentifier>
    <postCodeIdentifier>3700</postCodeIdentifier>
    <districtName>Rønne</districtName>
    <districtSubDivisionIdentifier></districtSubDivisionIdentifier>
    <latitude>55.09328032</latitude>
    <longitude>14.72949744</longitude>
  </Location>
  <Location>
    <streetName>Ndr. Ringgade</streetName>
    <streetBuildingIdentifier>65</streetBuildingIdentifier>
    <postCodeIdentifier>4200</postCodeIdentifier>
    <districtName>Slagelse</districtName>
    <districtSubDivisionIdentifier></districtSubDivisionIdentifier>
    <latitude>55.41345353</latitude>
    <longitude>11.35054502</longitude>
  </Location>
  <Location>
    <streetName>Søndergade</streetName>
    <streetBuildingIdentifier>60</streetBuildingIdentifier>
    <postCodeIdentifier>8740</postCodeIdentifier>
    <districtName>Brædstrup</districtName>
    <districtSubDivisionIdentifier></districtSubDivisionIdentifier>
    <latitude>55.96825843</latitude>
    <longitude>9.6103641</longitude>
  </Location>
  <Location>
    <streetName>Tuborg Havnevej</streetName>
    <streetBuildingIdentifier>4</streetBuildingIdentifier>
    <postCodeIdentifier>2900</postCodeIdentifier>
    <districtName>Hellerup</districtName>
    <districtSubDivisionIdentifier></districtSubDivisionIdentifier>
    <latitude>55.7258566</latitude>
    <longitude>12.57830794</longitude>
  </Location>
  <Location>
    <streetName>Centervej</streetName>
    <streetBuildingIdentifier>12</streetBuildingIdentifier>
    <postCodeIdentifier>8963</postCodeIdentifier>
    <districtName>Auning</districtName>
    <districtSubDivisionIdentifier></districtSubDivisionIdentifier>
    <latitude>56.43213602</latitude>
    <longitude>10.37365002</longitude>
  </Location>
  <Location>
    <streetName>Trøjborggade</streetName>
    <streetBuildingIdentifier>1</streetBuildingIdentifier>
    <postCodeIdentifier>1757</postCodeIdentifier>
    <districtName>København V</districtName>
    <districtSubDivisionIdentifier></districtSubDivisionIdentifier>
    <latitude>55.66929426</latitude>
    <longitude>12.54034837</longitude>
  </Location>
  <Location>
    <streetName>Finsensvej</streetName>
    <streetBuildingIdentifier>34</streetBuildingIdentifier>
    <postCodeIdentifier>2000</postCodeIdentifier>
    <districtName>Frederiksberg</districtName>
    <districtSubDivisionIdentifier></districtSubDivisionIdentifier>
    <latitude>55.68160693</latitude>
    <longitude>12.51649214</longitude>
  </Location>
  <Location>
    <streetName>Brøndby Strand Centrum</streetName>
    <streetBuildingIdentifier>15</streetBuildingIdentifier>
    <postCodeIdentifier>2660</postCodeIdentifier>
    <districtName>Brøndby Strand</districtName>
    <districtSubDivisionIdentifier></districtSubDivisionIdentifier>
    <latitude>55.62167032</latitude>
    <longitude>12.42243786</longitude>
  </Location>
  <Location>
    <streetName>Nørregade</streetName>
    <streetBuildingIdentifier>24</streetBuildingIdentifier>
    <postCodeIdentifier>4600</postCodeIdentifier>
    <districtName>Køge</districtName>
    <districtSubDivisionIdentifier></districtSubDivisionIdentifier>
    <latitude>55.45834071</latitude>
    <longitude>12.18383372</longitude>
  </Location>
  <Location>
    <streetName>Vesterbrogade</streetName>
    <streetBuildingIdentifier>192</streetBuildingIdentifier>
    <postCodeIdentifier>1800</postCodeIdentifier>
    <districtName>Frederiksberg C</districtName>
    <districtSubDivisionIdentifier></districtSubDivisionIdentifier>
    <latitude>55.6707378</latitude>
    <longitude>12.53425804</longitude>
  </Location>
  <Location>
    <streetName>Treldevej</streetName>
    <streetBuildingIdentifier>34</streetBuildingIdentifier>
    <postCodeIdentifier>7000</postCodeIdentifier>
    <districtName>Fredericia</districtName>
    <districtSubDivisionIdentifier></districtSubDivisionIdentifier>
    <latitude>55.57633965</latitude>
    <longitude>9.76707036</longitude>
  </Location>
  <Location>
    <streetName>Silkeborgvej</streetName>
    <streetBuildingIdentifier>650</streetBuildingIdentifier>
    <postCodeIdentifier>8220</postCodeIdentifier>
    <districtName>Brabrand</districtName>
    <districtSubDivisionIdentifier></districtSubDivisionIdentifier>
    <latitude>56.15391769</latitude>
    <longitude>10.09777676</longitude>
  </Location>
  <Location>
    <streetName>Lindholm Nærbanevej</streetName>
    <streetBuildingIdentifier>5</streetBuildingIdentifier>
    <postCodeIdentifier>9400</postCodeIdentifier>
    <districtName>Nørresundby</districtName>
    <districtSubDivisionIdentifier></districtSubDivisionIdentifier>
    <latitude>57.06657772</latitude>
    <longitude>9.90396623</longitude>
  </Location>
  <Location>
    <streetName>Godthåbsvej</streetName>
    <streetBuildingIdentifier>14</streetBuildingIdentifier>
    <postCodeIdentifier>2000</postCodeIdentifier>
    <districtName>Frederiksberg</districtName>
    <districtSubDivisionIdentifier></districtSubDivisionIdentifier>
    <latitude>55.68591207</latitude>
    <longitude>12.53656721</longitude>
  </Location>
  <Location>
    <streetName>Brombærvej</streetName>
    <streetBuildingIdentifier>1</streetBuildingIdentifier>
    <postCodeIdentifier>8462</postCodeIdentifier>
    <districtName>Harlev J</districtName>
    <districtSubDivisionIdentifier></districtSubDivisionIdentifier>
    <latitude>56.15208976</latitude>
    <longitude>10.0053048</longitude>
  </Location>
  <Location>
    <streetName>Godthåbsvej</streetName>
    <streetBuildingIdentifier>74</streetBuildingIdentifier>
    <postCodeIdentifier>2000</postCodeIdentifier>
    <districtName>Frederiksberg</districtName>
    <districtSubDivisionIdentifier></districtSubDivisionIdentifier>
    <latitude>55.68812904</latitude>
    <longitude>12.52702628</longitude>
  </Location>
  <Location>
    <streetName>Priorensgade</streetName>
    <streetBuildingIdentifier>73</streetBuildingIdentifier>
    <postCodeIdentifier>5600</postCodeIdentifier>
    <districtName>Faaborg</districtName>
    <districtSubDivisionIdentifier></districtSubDivisionIdentifier>
    <latitude>55.09347973</latitude>
    <longitude>10.25480336</longitude>
  </Location>
  <Location>
    <streetName>Lindedal</streetName>
    <streetBuildingIdentifier>15</streetBuildingIdentifier>
    <postCodeIdentifier>6100</postCodeIdentifier>
    <districtName>Haderslev</districtName>
    <districtSubDivisionIdentifier></districtSubDivisionIdentifier>
    <latitude>55.25233799</latitude>
    <longitude>9.50031332</longitude>
  </Location>
  <Location>
    <streetName>Vølundsvej</streetName>
    <streetBuildingIdentifier>1</streetBuildingIdentifier>
    <postCodeIdentifier>7400</postCodeIdentifier>
    <districtName>Herning</districtName>
    <districtSubDivisionIdentifier></districtSubDivisionIdentifier>
    <latitude>56.13926557</latitude>
    <longitude>8.94475676</longitude>
  </Location>
  <Location>
    <streetName>Nørrebrogade</streetName>
    <streetBuildingIdentifier>170</streetBuildingIdentifier>
    <postCodeIdentifier>2200</postCodeIdentifier>
    <districtName>København N</districtName>
    <districtSubDivisionIdentifier></districtSubDivisionIdentifier>
    <latitude>55.69633762</latitude>
    <longitude>12.54607479</longitude>
  </Location>
  <Location>
    <streetName>Nygårds Plads</streetName>
    <streetBuildingIdentifier>1</streetBuildingIdentifier>
    <postCodeIdentifier>2605</postCodeIdentifier>
    <districtName>Brøndby</districtName>
    <districtSubDivisionIdentifier></districtSubDivisionIdentifier>
    <latitude>55.66559207</latitude>
    <longitude>12.43949323</longitude>
  </Location>
  <Location>
    <streetName>Frederikssundsvej</streetName>
    <streetBuildingIdentifier>261</streetBuildingIdentifier>
    <postCodeIdentifier>2700</postCodeIdentifier>
    <districtName>Brønshøj</districtName>
    <districtSubDivisionIdentifier></districtSubDivisionIdentifier>
    <latitude>55.70828242</latitude>
    <longitude>12.4834889</longitude>
  </Location>
  <Location>
    <streetName>Fuglsang</streetName>
    <streetBuildingIdentifier>2</streetBuildingIdentifier>
    <postCodeIdentifier>5270</postCodeIdentifier>
    <districtName>Odense N</districtName>
    <districtSubDivisionIdentifier></districtSubDivisionIdentifier>
    <latitude>55.41623071</latitude>
    <longitude>10.36966176</longitude>
  </Location>
  <Location>
    <streetName>Borgmester Fischers Vej</streetName>
    <streetBuildingIdentifier>1</streetBuildingIdentifier>
    <postCodeIdentifier>2000</postCodeIdentifier>
    <districtName>Frederiksberg</districtName>
    <districtSubDivisionIdentifier></districtSubDivisionIdentifier>
    <latitude>55.67171204</latitude>
    <longitude>12.50721883</longitude>
  </Location>
  <Location>
    <streetName>Dirch Passers Allé</streetName>
    <streetBuildingIdentifier>19</streetBuildingIdentifier>
    <postCodeIdentifier>2000</postCodeIdentifier>
    <districtName>Frederiksberg</districtName>
    <districtSubDivisionIdentifier></districtSubDivisionIdentifier>
    <latitude>55.68467601</latitude>
    <longitude>12.50193457</longitude>
  </Location>
  <Location>
    <streetName>Torvesvinget</streetName>
    <streetBuildingIdentifier>1</streetBuildingIdentifier>
    <postCodeIdentifier>4560</postCodeIdentifier>
    <districtName>Vig</districtName>
    <districtSubDivisionIdentifier></districtSubDivisionIdentifier>
    <latitude>55.85386554</latitude>
    <longitude>11.5793859</longitude>
  </Location>
  <Location>
    <streetName>Marienbergvej</streetName>
    <streetBuildingIdentifier>100</streetBuildingIdentifier>
    <postCodeIdentifier>4760</postCodeIdentifier>
    <districtName>Vordingborg</districtName>
    <districtSubDivisionIdentifier></districtSubDivisionIdentifier>
    <latitude>55.00273243</latitude>
    <longitude>11.89591676</longitude>
  </Location>
  <Location>
    <streetName>Bycentret</streetName>
    <streetBuildingIdentifier>205</streetBuildingIdentifier>
    <postCodeIdentifier>5330</postCodeIdentifier>
    <districtName>Munkebo</districtName>
    <districtSubDivisionIdentifier></districtSubDivisionIdentifier>
    <latitude>55.46004633</latitude>
    <longitude>10.55709698</longitude>
  </Location>
  <Location>
    <streetName>Vejlevej</streetName>
    <streetBuildingIdentifier>42C</streetBuildingIdentifier>
    <postCodeIdentifier>7300</postCodeIdentifier>
    <districtName>Jelling</districtName>
    <districtSubDivisionIdentifier></districtSubDivisionIdentifier>
    <latitude>55.75712347</latitude>
    <longitude>9.43175262</longitude>
  </Location>
  <Location>
    <streetName>Jernbane Allé</streetName>
    <streetBuildingIdentifier>19</streetBuildingIdentifier>
    <postCodeIdentifier>2720</postCodeIdentifier>
    <districtName>Vanløse</districtName>
    <districtSubDivisionIdentifier></districtSubDivisionIdentifier>
    <latitude>55.68508985</latitude>
    <longitude>12.49215165</longitude>
  </Location>
  <Location>
    <streetName>Københavnsvej</streetName>
    <streetBuildingIdentifier>80</streetBuildingIdentifier>
    <postCodeIdentifier>4000</postCodeIdentifier>
    <districtName>Roskilde</districtName>
    <districtSubDivisionIdentifier></districtSubDivisionIdentifier>
    <latitude>55.64182876</latitude>
    <longitude>12.1096337</longitude>
  </Location>
  <Location>
    <streetName>Jyllingevej</streetName>
    <streetBuildingIdentifier>9</streetBuildingIdentifier>
    <postCodeIdentifier>2720</postCodeIdentifier>
    <districtName>Vanløse</districtName>
    <districtSubDivisionIdentifier></districtSubDivisionIdentifier>
    <latitude>55.69347958</latitude>
    <longitude>12.49307548</longitude>
  </Location>
  <Location>
    <streetName>Eriksmindevej</streetName>
    <streetBuildingIdentifier>26</streetBuildingIdentifier>
    <postCodeIdentifier>2670</postCodeIdentifier>
    <districtName>Greve</districtName>
    <districtSubDivisionIdentifier></districtSubDivisionIdentifier>
    <latitude>55.59440781</latitude>
    <longitude>12.31656877</longitude>
  </Location>
  <Location>
    <streetName>Maglebytorv</streetName>
    <streetBuildingIdentifier>0</streetBuildingIdentifier>
    <postCodeIdentifier>2791</postCodeIdentifier>
    <districtName>Dragør</districtName>
    <districtSubDivisionIdentifier></districtSubDivisionIdentifier>
    <latitude>55.5954998</latitude>
    <longitude>12.66023977</longitude>
  </Location>
  <Location>
    <streetName>Skt. Knuds Torv</streetName>
    <streetBuildingIdentifier>2</streetBuildingIdentifier>
    <postCodeIdentifier>8000</postCodeIdentifier>
    <districtName>Århus C</districtName>
    <districtSubDivisionIdentifier></districtSubDivisionIdentifier>
    <latitude>56.15129022</latitude>
    <longitude>10.20522094</longitude>
  </Location>
  <Location>
    <streetName>Frederikssundsvej</streetName>
    <streetBuildingIdentifier>2</streetBuildingIdentifier>
    <postCodeIdentifier>2400</postCodeIdentifier>
    <districtName>København NV</districtName>
    <districtSubDivisionIdentifier></districtSubDivisionIdentifier>
    <latitude>55.70114132</latitude>
    <longitude>12.53727523</longitude>
  </Location>
  <Location>
    <streetName>Kjærsvej</streetName>
    <streetBuildingIdentifier>68</streetBuildingIdentifier>
    <postCodeIdentifier>4220</postCodeIdentifier>
    <districtName>Korsør</districtName>
    <districtSubDivisionIdentifier></districtSubDivisionIdentifier>
    <latitude>55.32242149</latitude>
    <longitude>11.15543797</longitude>
  </Location>
  <Location>
    <streetName>Skibhusvej</streetName>
    <streetBuildingIdentifier>41</streetBuildingIdentifier>
    <postCodeIdentifier>5000</postCodeIdentifier>
    <districtName>Odense C</districtName>
    <districtSubDivisionIdentifier></districtSubDivisionIdentifier>
    <latitude>55.40480537</latitude>
    <longitude>10.39302026</longitude>
  </Location>
  <Location>
    <streetName>Lyngbyvej</streetName>
    <streetBuildingIdentifier>165</streetBuildingIdentifier>
    <postCodeIdentifier>2100</postCodeIdentifier>
    <districtName>København Ø</districtName>
    <districtSubDivisionIdentifier></districtSubDivisionIdentifier>
    <latitude>55.71938872</latitude>
    <longitude>12.55582793</longitude>
  </Location>
  <Location>
    <streetName>Hvidovrevej</streetName>
    <streetBuildingIdentifier>255</streetBuildingIdentifier>
    <postCodeIdentifier>2650</postCodeIdentifier>
    <districtName>Hvidovre</districtName>
    <districtSubDivisionIdentifier></districtSubDivisionIdentifier>
    <latitude>55.64049083</latitude>
    <longitude>12.47922794</longitude>
  </Location>
  <Location>
    <streetName>Algade</streetName>
    <streetBuildingIdentifier>23</streetBuildingIdentifier>
    <postCodeIdentifier>4660</postCodeIdentifier>
    <districtName>Store Heddinge</districtName>
    <districtSubDivisionIdentifier></districtSubDivisionIdentifier>
    <latitude>55.31116322</latitude>
    <longitude>12.38943711</longitude>
  </Location>
  <Location>
    <streetName>Søndergade</streetName>
    <streetBuildingIdentifier>42</streetBuildingIdentifier>
    <postCodeIdentifier>5450</postCodeIdentifier>
    <districtName>Otterup</districtName>
    <districtSubDivisionIdentifier></districtSubDivisionIdentifier>
    <latitude>55.51011234</latitude>
    <longitude>10.40003112</longitude>
  </Location>
  <Location>
    <streetName>Viborgvej</streetName>
    <streetBuildingIdentifier>102</streetBuildingIdentifier>
    <postCodeIdentifier>8920</postCodeIdentifier>
    <districtName>Randers NV</districtName>
    <districtSubDivisionIdentifier></districtSubDivisionIdentifier>
    <latitude>56.46642361</latitude>
    <longitude>9.99504338</longitude>
  </Location>
  <Location>
    <streetName>Amagerbrogade</streetName>
    <streetBuildingIdentifier>235</streetBuildingIdentifier>
    <postCodeIdentifier>2300</postCodeIdentifier>
    <districtName>København S</districtName>
    <districtSubDivisionIdentifier></districtSubDivisionIdentifier>
    <latitude>55.64740558</latitude>
    <longitude>12.61407477</longitude>
  </Location>
  <Location>
    <streetName>Holbækvej</streetName>
    <streetBuildingIdentifier>2</streetBuildingIdentifier>
    <postCodeIdentifier>4000</postCodeIdentifier>
    <districtName>Roskilde</districtName>
    <districtSubDivisionIdentifier></districtSubDivisionIdentifier>
    <latitude>55.63421694</latitude>
    <longitude>12.0702841</longitude>
  </Location>
  <Location>
    <streetName>Næstvedvej</streetName>
    <streetBuildingIdentifier>15</streetBuildingIdentifier>
    <postCodeIdentifier>4100</postCodeIdentifier>
    <districtName>Ringsted</districtName>
    <districtSubDivisionIdentifier></districtSubDivisionIdentifier>
    <latitude>55.43933755</latitude>
    <longitude>11.79268852</longitude>
  </Location>
  <Location>
    <streetName>Aarbyesvej</streetName>
    <streetBuildingIdentifier>22</streetBuildingIdentifier>
    <postCodeIdentifier>4970</postCodeIdentifier>
    <districtName>Rødby</districtName>
    <districtSubDivisionIdentifier></districtSubDivisionIdentifier>
    <latitude>54.69493349</latitude>
    <longitude>11.39223861</longitude>
  </Location>
  <Location>
    <streetName>Kastrupvej</streetName>
    <streetBuildingIdentifier>109</streetBuildingIdentifier>
    <postCodeIdentifier>2300</postCodeIdentifier>
    <districtName>København S</districtName>
    <districtSubDivisionIdentifier></districtSubDivisionIdentifier>
    <latitude>55.65119713</latitude>
    <longitude>12.62088089</longitude>
  </Location>
  <Location>
    <streetName>Kongevejen</streetName>
    <streetBuildingIdentifier>32</streetBuildingIdentifier>
    <postCodeIdentifier>3450</postCodeIdentifier>
    <districtName>Allerød</districtName>
    <districtSubDivisionIdentifier></districtSubDivisionIdentifier>
    <latitude>55.86794154</latitude>
    <longitude>12.38271748</longitude>
  </Location>
  <Location>
    <streetName>Søndergade</streetName>
    <streetBuildingIdentifier>4</streetBuildingIdentifier>
    <postCodeIdentifier>8464</postCodeIdentifier>
    <districtName>Galten</districtName>
    <districtSubDivisionIdentifier></districtSubDivisionIdentifier>
    <latitude>56.15417167</latitude>
    <longitude>9.90324383</longitude>
  </Location>
  <Location>
    <streetName>Tomsgårdsvej</streetName>
    <streetBuildingIdentifier>15</streetBuildingIdentifier>
    <postCodeIdentifier>2400</postCodeIdentifier>
    <districtName>København NV</districtName>
    <districtSubDivisionIdentifier></districtSubDivisionIdentifier>
    <latitude>55.70759359</latitude>
    <longitude>12.52241156</longitude>
  </Location>
  <Location>
    <streetName>Farum Bytorv</streetName>
    <streetBuildingIdentifier>1</streetBuildingIdentifier>
    <postCodeIdentifier>3520</postCodeIdentifier>
    <districtName>Farum</districtName>
    <districtSubDivisionIdentifier></districtSubDivisionIdentifier>
    <latitude>55.814489</latitude>
    <longitude>12.37884074</longitude>
  </Location>
  <Location>
    <streetName>Emdrupvej</streetName>
    <streetBuildingIdentifier>107</streetBuildingIdentifier>
    <postCodeIdentifier>2400</postCodeIdentifier>
    <districtName>København NV</districtName>
    <districtSubDivisionIdentifier></districtSubDivisionIdentifier>
    <latitude>55.72247947</latitude>
    <longitude>12.54223303</longitude>
  </Location>
  <Location>
    <streetName>Søborg Hovedgade</streetName>
    <streetBuildingIdentifier>65</streetBuildingIdentifier>
    <postCodeIdentifier>2860</postCodeIdentifier>
    <districtName>Søborg</districtName>
    <districtSubDivisionIdentifier></districtSubDivisionIdentifier>
    <latitude>55.73343867</latitude>
    <longitude>12.5157059</longitude>
  </Location>
  <Location>
    <streetName>Vestermarken</streetName>
    <streetBuildingIdentifier>1</streetBuildingIdentifier>
    <postCodeIdentifier>3060</postCodeIdentifier>
    <districtName>Espergærde</districtName>
    <districtSubDivisionIdentifier></districtSubDivisionIdentifier>
    <latitude>55.9953015</latitude>
    <longitude>12.54530626</longitude>
  </Location>
  <Location>
    <streetName>Hillerødsholmsalle</streetName>
    <streetBuildingIdentifier>10</streetBuildingIdentifier>
    <postCodeIdentifier>3400</postCodeIdentifier>
